Tipo.Registro,Protocolo.BATEU,Data,Hora,Via.Primária,Via.Secundária,Cruzamento,Número.(KM),Condição.Climática,Tipo.de.Acidente,Tipo.de.Veículo,Vítimas,Resultado,Tipo.Envolvido,Faixa.Etária,Categoria.Etilométrico,Subtipo.Etilométrico,Qtd..Veículos.Envolidos,Qtd..Pessoas.Envolvidas,Qtd..Vítimas,address,lat,long,UTM_x,UTM_y
BATEU Local,1226301,12/05/2011,14:00,Rua Olegario Reis Do Amaral,Rua Arthur Martins Franco,Rua Olegario Reis Do Amaral X Rua Arthur Martins Franco,1247,Bom,ABALROAMENTO TRANSVERSAL,BICICLETA,COM VÍTIMAS,-,-,-,Sem Info.,Sem Info.,1,0,0,Rua Olegario Reis Do Amaral 1247,-25.5012599,-49.33538,667303.333777023,7178500.04553509
BATEU Local,1217101,21/05/2011,11:00,Rua Nicola Pellanda,Rua Leonildo Burbello,Rua Nicola Pellanda X Rua Leonildo Burbello,0,Bom,ABALROAMENTO LATERAL,BICICLETA,SEM VÍTIMAS,Não informado,CONDUTOR,07 - 60 ou mais,Não Embriagado,Não realizou teste etilométrico,1,1,0,Rua Nicola Pellanda X Rua Leonildo Burbello,-25.55047,-49.29283,671510.623678979,7172994.96036408
BATEU Local,1216701,24/05/2011,22:00,Rua Sebastiao Alves Ferreira,Rua Albino Kaminski,Rua Sebastiao Alves Ferreira X Rua Albino Kaminski,0,Bom,ABALROAMENTO TRANSVERSAL,BICICLETA,COM VÍTIMAS,Ferimento,CONDUTOR,08 - Não informada,Não Embriagado,Não realizou teste etilométrico,1,1,1,Rua Sebastiao Alves Ferreira X Rua Albino Kaminski,-25.40999,-49.20362,680684.862092641,7188437.72438975
BATEU Local,889601,20/05/2011,20:00,Rua Capitao Argemiro Monteiro Wanderley,Avenida Winston Churchill,Rua Capitao Argemiro Monteiro Wanderley X Avenida Winston Churchill,114,Nublado,ABALROAMENTO TRANSVERSAL,BICICLETA,COM VÍTIMAS,Ferimento,CONDUTOR,08 - Não informada,Sem Info.,Sem Info.,1,1,1,Rua Capitao Argemiro Monteiro Wanderley 114,-25.5102522,-49.2961849,671230.623103994,7177454.11585684
BATEU Local,772301,10/09/2011,12:00,Rua Herculano De Araujo Filho,Rua Emilio Romani,Rua Herculano De Araujo Filho X Rua Emilio Romani,2991,Bom,ATROPELAMENTO,BICICLETA,COM VÍTIMAS,Não informado,CONDUTOR,08 - Não informada,Sem Info.,Sem Info.,1,1,0,Rua Herculano De Araujo Filho 2991,-25.52823,-49.33731,667071.97132832,7175515.10600043
BATEU Local,530101,01/09/2011,18:00,Rua Romano Bertagnoli,Avenida Candido Hartmann,Rua Romano Bertagnoli X Avenida Candido Hartmann,0,Bom,ABALROAMENTO TRANSVERSAL,BICICLETA,COM VÍTIMAS,Sem Ferimentos,CONDUTOR,05 - Entre 41 e 50 anos,Não Embriagado,Não realizou teste etilométrico,1,1,0,Rua Romano Bertagnoli X Avenida Candido Hartmann,-25.42295,-49.30446,670521.91852983,7187134.89160571
BATEU Local,16239,12/12/2011,17:00,Rua Waldemar Loureiro Campos,Rua Bartolomeu Lourenco De Gusmao,Rua Waldemar Loureiro Campos X Rua Bartolomeu Lourenco De Gusmao,3685,Bom,ABALROAMENTO TRANSVERSAL,BICICLETA,SEM VÍTIMAS,Não informado,CONDUTOR,02 - Entre 12 e 17 anos,Sem Info.,Sem Info.,1,1,0,Rua Waldemar Loureiro Campos 3685,-25.5114355,-49.2576333,675104.026707957,7177272.83784112
BATEU Local,16183,06/12/2011,17:00,Rua Adriana Ceres Zago Bueno,Avenida Pero Vaz De Caminha,Rua Adriana Ceres Zago Bueno X Avenida Pero Vaz De Caminha,1160,Bom,COLISAO FRONTAL,BICICLETA,COM VÍTIMAS,Sem Ferimentos,RESPONSAVEL,04 - Entre 30 e 40 anos,Sem Info.,Sem Info.,1,1,0,Rua Adriana Ceres Zago Bueno 1160,-25.56411,-49.33441,667313.587302381,7171537.15952168
BATEU Local,16159,13/12/2011,11:00,Avenida Marechal Floriano Peixoto,Avenida Iguacu,Avenida Marechal Floriano Peixoto X Avenida Iguacu,550,Nublado,ABALROAMENTO TRANSVERSAL,BICICLETA,COM VÍTIMAS,Ferimento,CONDUTOR,08 - Não informada,Sem Info.,Sem Info.,1,1,1,Avenida Marechal Floriano Peixoto 550,-25.4354438,-49.2697532,673995.128528153,7185706.17007667
BATEU Local,12410,14/10/2011,12:00,Rua Diogo Mugiatti,Rua Das Carmelitas,Rua Diogo Mugiatti X Rua Das Carmelitas,4343,Nublado,ABALROAMENTO TRANSVERSAL,BICICLETA,COM VÍTIMAS,Ferimento,CONDUTOR,02 - Entre 12 e 17 anos,Não Embriagado,Não realizou teste etilométrico,1,1,1,Rua Diogo Mugiatti 4343,-25.51169,-49.2309,677790.826399238,7177209.17087155
BATEU Local,12334,16/07/2011,12:00,Rua Nova Esperanca,-,Rua Nova Esperanca X ,506,Bom,ABALROAMENTO TRANSVERSAL,BICICLETA,COM VÍTIMAS,Sem Ferimentos,CONDUTOR,03 - Entre 18 e 29 anos,Não Embriagado,Não realizou teste etilométrico,1,1,0,Rua Nova Esperanca 506,-25.54429,-49.27519,673292.05074886,7173656.60622341
BATEU Local,12299,04/09/2011,19:00,Rua Brasilio Itibere,-,Rua Brasilio Itibere X ,200,Bom,ABALROAMENTO TRANSVERSAL,BICICLETA,COM VÍTIMAS,Ferimento,CONDUTOR,08 - Não informada,Não Embriagado,Não realizou teste etilométrico,1,1,1,Rua Brasilio Itibere 200,-25.4387139,-49.2472278,676255.987615705,7185314.36168847
BATEU Local,12239,20/10/2011,11:00,Rua Jose Zaleski,Rua Deputado Ardinal Ribas,Rua Jose Zaleski X Rua Deputado Ardinal Ribas,561,Bom,ABALROAMENTO TRANSVERSAL,BICICLETA,COM VÍTIMAS,Sem Ferimentos,CONDUTOR,03 - Entre 18 e 29 anos,Sem Info.,Sem Info.,1,1,0,Rua Jose Zaleski 561,-25.50158,-49.3016,670698.578202942,7178421.67133051
BATEU Local,12237,16/10/2011,17:00,Rua Deputado Acyr Jose,Rua Osires Del Corso,Rua Deputado Acyr Jose X Rua Osires Del Corso,630,Bom,ACIDENTE COMPLEXO,BICICLETA,COM VÍTIMAS,Ferimento,CONDUTOR,07 - 60 ou mais,Sem Info.,Sem Info.,1,1,1,Rua Deputado Acyr Jose 630,-25.4733525,-49.2003829,680915.791165896,7181414.67980206
BATEU Local,11942,29/08/2011,07:00,Rua Subtenente Francisco Hierro,Rua Amauri Mauad Guerios,Rua Subtenente Francisco Hierro X Rua Amauri Mauad Guerios,166,Bom,ABALROAMENTO TRANSVERSAL,BICICLETA,COM VÍTIMAS,Ferimento,PASSAGEIRO,08 - Não informada,Sem Info.,Sem Info.,1,1,1,Rua Subtenente Francisco Hierro 166,-25.49531,-49.21161,679754.220161151,7178997.65393218
BATEU Local,11796,14/09/2011,06:00,Rua Teofilo Otoni,Rua Natal,Rua Teofilo Otoni X Rua Natal,1460,Nublado,ABALROAMENTO LATERAL,BICICLETA,COM VÍTIMAS,Ferimento,CONDUTOR,04 - Entre 30 e 40 anos,Não Embriagado,Não realizou teste etilométrico,1,1,1,Rua Teofilo Otoni 1460,-25.4556,-49.20694,680282.935810111,7183390.01693802
BATEU Local,11772,02/09/2011,08:00,Rua Otavio Afonso Da Silva,Rua Olivio Domingos Leonardi,Rua Otavio Afonso Da Silva X Rua Olivio Domingos Leonardi,0,Nublado,ABALROAMENTO TRANSVERSAL,BICICLETA,COM VÍTIMAS,Ferimento,CONDUTOR,02 - Entre 12 e 17 anos,Não Embriagado,Não realizou teste etilométrico,1,1,1,Rua Otavio Afonso Da Silva X Rua Olivio Domingos Leonardi,-25.54906,-49.26359,674450.822744071,7173113.05116671
BATEU Local,11619,10/08/2011,16:00,Rua Ney Pacheco,Rua Jornalista Augusto Waldrigues,Rua Ney Pacheco X Rua Jornalista Augusto Waldrigues,190,Não Informado,ABALROAMENTO TRANSVERSAL,BICICLETA,COM VÍTIMAS,Sem Ferimentos,CONDUTOR,06 - Entre 51 e 59 anos,Sem Info.,Sem Info.,1,1,0,Rua Ney Pacheco 190,-25.5272302,-49.3382522,666978.664052886,7175627.03404993
BATEU Local,11401,13/08/2011,14:00,Rua Roberto Fritsch,Rua Nova Esperanca,Rua Roberto Fritsch X Rua Nova Esperanca,1597,Bom,ABALROAMENTO TRANSVERSAL,BICICLETA,COM VÍTIMAS,Sem Ferimentos,RESPONSAVEL,03 - Entre 18 e 29 anos,Sem Info.,Sem Info.,1,1,0,Rua Roberto Fritsch 1597,-25.54874,-49.26896,673911.676322833,7173155.54141026
BATEU Local,11275,04/12/2011,17:00,Rua Roberto Faria,Avenida Presidente Wenceslau Braz,Rua Roberto Faria X Avenida Presidente Wenceslau Braz,0,Nublado,ABALROAMENTO TRANSVERSAL,BICICLETA,COM VÍTIMAS,Ferimento,CONDUTOR,04 - Entre 30 e 40 anos,Não Embriagado,Não realizou teste etilométrico,1,1,1,Rua Roberto Faria X Avenida Presidente Wenceslau Braz,-25.47236,-49.26307,674614.033874,7181608.30973199
BATEU Local,11247,19/11/2011,14:00,Rua Campo Grande,Avenida Florianopolis,Rua Campo Grande X Avenida Florianopolis,0,Bom,ABALROAMENTO TRANSVERSAL,BICICLETA,COM VÍTIMAS,-,-,-,Sem Info.,Sem Info.,1,0,0,Rua Campo Grande X Avenida Florianopolis,-25.45806,-49.2096,680011.769999252,7183121.12003118
BATEU Local,11176,20/12/2011,12:00,Rua Conselheiro Dantas,Avenida Marechal Floriano Peixoto,Rua Conselheiro Dantas X Avenida Marechal Floriano Peixoto,0,Bom,ABALROAMENTO TRANSVERSAL,BICICLETA,COM VÍTIMAS,Sem Ferimentos,RESPONSAVEL,04 - Entre 30 e 40 anos,Sem Info.,Sem Info.,1,1,0,Rua Conselheiro Dantas X Avenida Marechal Floriano Peixoto,-25.45078,-49.26239,674713.582488846,7183997.7874781
BATEU Local,11105,28/11/2011,19:00,Avenida Parana,-,Avenida Parana X ,1348,Bom,QUEDA VEICULO,BICICLETA,COM VÍTIMAS,Ferimento,CONDUTOR,05 - Entre 41 e 50 anos,Sem Info.,Sem Info.,1,1,1,Avenida Parana 1348,-25.40118,-49.24756,676277.177039475,7189472.34871904
BATEU Local,10977,22/11/2011,07:00,Rua Izaac Ferreira Da Cruz,Rua Campina Grande Do Sul,Rua Izaac Ferreira Da Cruz X Rua Campina Grande Do Sul,3441,Nublado,ABALROAMENTO TRANSVERSAL,BICICLETA,COM VÍTIMAS,Ferimento,CONDUTOR,06 - Entre 51 e 59 anos,Sem Info.,Sem Info.,1,1,1,Rua Izaac Ferreira Da Cruz 3441,-25.53515,-49.26981,673845.869422378,7174662.00038593
BATEU Local,10976,26/10/2011,21:00,Rua Waldemar Loureiro Campos,-,Rua Waldemar Loureiro Campos X ,2727,Bom,ABALROAMENTO TRANSVERSAL,BICICLETA,COM VÍTIMAS,Sem Ferimentos,CONDUTOR,03 - Entre 18 e 29 anos,Sem Info.,Sem Info.,1,1,0,Rua Waldemar Loureiro Campos 2727,-25.50776,-49.24847,676030.461193822,7177667.870185
BATEU Local,10834,21/10/2011,17:00,Rua Tijucas Do Sul,Rua Luiz Gurgel Do Amaral Valente,Rua Tijucas Do Sul X Rua Luiz Gurgel Do Amaral Valente,1501,Nublado,ABALROAMENTO TRANSVERSAL,BICICLETA,COM VÍTIMAS,Sem Ferimentos,RESPONSAVEL,05 - Entre 41 e 50 anos,Sem Info.,Sem Info.,1,1,0,Rua Tijucas Do Sul 1501,-25.5436462,-49.2675979,674055.907533984,7173717.99079739
BATEU Local,10679,05/10/2011,16:00,Rua Visconde Do Serro Frio,Rua Sebastiao Malucelli,Rua Visconde Do Serro Frio X Rua Sebastiao Malucelli,245,Bom,ABALROAMENTO TRANSVERSAL,BICICLETA,COM VÍTIMAS,-,-,-,Sem Info.,Sem Info.,1,0,0,Rua Visconde Do Serro Frio 245,-25.48622,-49.30541,670337.246297644,7180127.93152201
BATEU Local,10532,26/09/2011,19:00,Rua Desembargador Cid Campelo,Rua Orestes Tha,Rua Desembargador Cid Campelo X Rua Orestes Tha,4229,Bom,ABALROAMENTO TRANSVERSAL,BICICLETA,COM VÍTIMAS,Sem Ferimentos,RESPONSAVEL,03 - Entre 18 e 29 anos,Sem Info.,Sem Info.,1,1,0,Rua Desembargador Cid Campelo 4229,-25.5119899,-49.3323302,667595.009300712,7177307.68812467
BATEU Local,10503,20/10/2011,07:00,Rua Jose Batista Dos Santos,Rua Doutor Nelson Luiz Wolski Velloso,Rua Jose Batista Dos Santos X Rua Doutor Nelson Luiz Wolski Velloso,0,Bom,ABALROAMENTO TRANSVERSAL,BICICLETA,COM VÍTIMAS,Ferimento,CONDUTOR,03 - Entre 18 e 29 anos,Sem Info.,Sem Info.,1,1,1,Rua Jose Batista Dos Santos X Rua Doutor Nelson Luiz Wolski Velloso,-25.47996,-49.34392,666474.221651361,7180870.04799234
BATEU Local,10499,14/10/2011,13:00,Rua Tijucas Do Sul,Rua Moyses Gutztein,Rua Tijucas Do Sul X Rua Moyses Gutztein,0,Nublado,ABALROAMENTO TRANSVERSAL,BICICLETA,COM VÍTIMAS,Sem Ferimentos,CONDUTOR,04 - Entre 30 e 40 anos,Não Embriagado,Não realizou teste etilométrico,1,1,0,Rua Tijucas Do Sul X Rua Moyses Gutztein,-25.54301,-49.26917,673898.845130312,7173790.521257
BATEU Local,10483,05/10/2011,18:00,Rua Waldemar Cavanha,Rua Joana Maria Ferreira,Rua Waldemar Cavanha X Rua Joana Maria Ferreira,133,Não Informado,COLISAO FRONTAL,BICICLETA,COM VÍTIMAS,Ferimento,CONDUTOR,08 - Não informada,Não Embriagado,Não realizou teste etilométrico,1,1,1,Rua Waldemar Cavanha 133,-25.47689,-49.33148,667729.212919238,7181194.4832733
BATEU Local,10461,28/09/2011,18:00,Rua Vereador Antonio Carnasciali,Rua Professor Joao Soares Barcelos,Rua Vereador Antonio Carnasciali X Rua Professor Joao Soares Barcelos,0,Bom,ABALROAMENTO TRANSVERSAL,BICICLETA,SEM VÍTIMAS,Sem Ferimentos,CONDUTOR,04 - Entre 30 e 40 anos,Sem Info.,Sem Info.,1,1,0,Rua Vereador Antonio Carnasciali X Rua Professor Joao Soares Barcelos,-25.49617,-49.24704,676191.122215961,7178949.78863097
BATEU Local,10431,26/10/2011,09:00,Rua Americo Firmino De Toledo,-,Rua Americo Firmino De Toledo X ,578,Bom,ABALROAMENTO TRANSVERSAL,BICICLETA,COM VÍTIMAS,Ferimento,CONDUTOR,05 - Entre 41 e 50 anos,Sem Info.,Sem Info.,1,1,1,Rua Americo Firmino De Toledo 578,-25.5038133,-49.2158591,679314.4170901,7178061.47684516
BATEU Local,9163,24/12/2011,17:00,Rua Marte,Rua Florival Elvidio Da Silva,Rua Marte X Rua Florival Elvidio Da Silva,1234,Chuva Fraca,ACIDENTE COMPLEXO,BICICLETA,COM VÍTIMAS,Ferimento,NAOIDENTIFICADO,02 - Entre 12 e 17 anos,Sem Info.,Sem Info.,1,1,1,Rua Marte 1234,-25.53205,-49.26992,673839.285404398,7175005.52677831
BATEU Local,9160,22/12/2011,19:00,Rua Jair Silveira,-,Rua Jair Silveira X ,272,Nublado,ABALROAMENTO TRANSVERSAL,BICICLETA,COM VÍTIMAS,Ferimento,NAOIDENTIFICADO,08 - Não informada,Sem Info.,Sem Info.,1,1,1,Rua Jair Silveira 272,-25.5004632,-49.35201,665632.728116539,7178609.10357254
BATEU Local,9159,22/12/2011,17:00,Alameda Princesa Izabel,Alameda Presidente Taunay,Alameda Princesa Izabel X Alameda Presidente Taunay,1035,Bom,ABALROAMENTO TRANSVERSAL,BICICLETA,COM VÍTIMAS,Ferimento,PEDESTRE,04 - Entre 30 e 40 anos,Sem Info.,Sem Info.,1,1,1,Alameda Princesa Izabel 1035,-25.43174,-49.28742,672223.469671217,7186139.3632979
BATEU Local,8967,21/07/2011,07:00,Rua Jose Hauer,Rua Anne Frank,Rua Jose Hauer X Rua Anne Frank,0,Chuva Fraca,ATROPELAMENTO,BICICLETA,COM VÍTIMAS,Sem Ferimentos,CONDUTOR,04 - Entre 30 e 40 anos,Não Embriagado,Não realizou teste etilométrico,1,1,0,Rua Jose Hauer X Rua Anne Frank,-25.50631,-49.2339,677497.185555096,7177809.11908389
BATEU Local,8771,04/07/2011,11:00,Rua Padre Anchieta,Rua Fernando Simas,Rua Padre Anchieta X Rua Fernando Simas,0,Bom,ABALROAMENTO TRANSVERSAL,BICICLETA,COM VÍTIMAS,Ferimento,CONDUTOR,08 - Não informada,Sem Info.,Sem Info.,1,1,1,Rua Padre Anchieta X Rua Fernando Simas,-25.42937,-49.28991,671976.384230669,7186405.0930178
BATEU Local,8767,10/09/2011,19:00,Rua Bocaiuva,Avenida Presidente Arthur Da Silva Bernardes,Rua Bocaiuva X Avenida Presidente Arthur Da Silva Bernardes,0,Bom,ACIDENTE COMPLEXO,BICICLETA,COM VÍTIMAS,Sem Ferimentos,RESPONSAVEL,05 - Entre 41 e 50 anos,Sem Info.,Sem Info.,1,1,0,Rua Bocaiuva X Avenida Presidente Arthur Da Silva Bernardes,-25.46196,-49.30159,670755.567828564,7182810.23355679
BATEU Local,8735,02/07/2011,10:00,Rua Magdalena Chagas Lima,Rua Antonio Escorsin,Rua Magdalena Chagas Lima X Rua Antonio Escorsin,0,Nublado,ABALROAMENTO LATERAL,BICICLETA,SEM VÍTIMAS,Não informado,CONDUTOR,02 - Entre 12 e 17 anos,Sem Info.,Sem Info.,1,1,0,Rua Magdalena Chagas Lima X Rua Antonio Escorsin,-25.41756,-49.34601,666349.85191336,7187784.37157793
BATEU Local,8651,24/08/2011,13:00,Rua Manife Tacla,Rua Caetano Granato,Rua Manife Tacla X Rua Caetano Granato,0,Bom,ABALROAMENTO LATERAL,BICICLETA,COM VÍTIMAS,Sem Ferimentos,RESPONSAVEL,04 - Entre 30 e 40 anos,Sem Info.,Sem Info.,1,1,0,Rua Manife Tacla X Rua Caetano Granato,-25.38962,-49.28006,673023.874731921,7190795.32149097
BATEU Local,8609,17/06/2011,19:00,Rua Mario Zanlorenzi,Rua Frederico Muller,Rua Mario Zanlorenzi X Rua Frederico Muller,0,Bom,COLISAO FRONTAL,BICICLETA,SEM VÍTIMAS,Sem Ferimentos,CONDUTOR,02 - Entre 12 e 17 anos,Não Embriagado,Não realizou teste etilométrico,1,1,0,Rua Mario Zanlorenzi X Rua Frederico Muller,-25.45835,-49.32161,668747.456548235,7183235.608964
BATEU Local,8537,08/06/2011,17:00,Rua Dos Pioneiros,Rua David Carneiro,Rua Dos Pioneiros X Rua David Carneiro,0,Bom,ATROPELAMENTO,BICICLETA,COM VÍTIMAS,-,-,-,Sem Info.,Sem Info.,1,0,0,Rua Dos Pioneiros X Rua David Carneiro,-25.4195,-49.27285,673706.516695982,7187476.25397258
BATEU Local,8521,09/09/2011,18:00,Rua Fortaleza,Rua Dos Ferroviarios,Rua Fortaleza X Rua Dos Ferroviarios,0,Nublado,ABALROAMENTO TRANSVERSAL,BICICLETA,COM VÍTIMAS,Ferimento,CONDUTOR,05 - Entre 41 e 50 anos,Sem Info.,Sem Info.,1,1,1,Rua Fortaleza X Rua Dos Ferroviarios,-25.45063,-49.20793,680190.778530367,7183941.8819241
BATEU Local,8200,26/09/2011,15:00,Rua Cidade De Maria Helena,Avenida Juscelino Kubitschek De Oliveira,Rua Cidade De Maria Helena X Avenida Juscelino Kubitschek De Oliveira,0,Bom,ABALROAMENTO TRANSVERSAL,BICICLETA,COM VÍTIMAS,Sem Ferimentos,RESPONSAVEL,06 - Entre 51 e 59 anos,Sem Info.,Sem Info.,1,1,0,Rua Cidade De Maria Helena X Avenida Juscelino Kubitschek De Oliveira,-25.48497,-49.34685,666172.746594825,7180318.77587869
BATEU Local,8105,22/09/2011,07:00,Rua Felipe Camarao,Rua Chile,Rua Felipe Camarao X Rua Chile,0,Nublado,NAO IDENTIFICADO,BICICLETA,COM VÍTIMAS,Sem Ferimentos,RESPONSAVEL,06 - Entre 51 e 59 anos,Sem Info.,Sem Info.,1,1,0,Rua Felipe Camarao X Rua Chile,-25.44572,-49.2532,675645.146779436,7184546.19287485
BATEU Local,7994,01/09/2011,13:00,Rua Belo Horizonte,Avenida Sete De Setembro,Rua Belo Horizonte X Avenida Sete De Setembro,0,Bom,ABALROAMENTO TRANSVERSAL,BICICLETA,COM VÍTIMAS,Ferimento,CONDUTOR,04 - Entre 30 e 40 anos,Sem Info.,Sem Info.,1,1,1,Rua Belo Horizonte X Avenida Sete De Setembro,-25.44842,-49.29484,671453.519375666,7184301.34272571
BATEU Local,7849,18/08/2011,18:00,Rua Francisco Derosso,Rua Dos Pioneiros,Rua Francisco Derosso X Rua Dos Pioneiros,5100,Chuva Fraca,ABALROAMENTO TRANSVERSAL,BICICLETA,COM VÍTIMAS,Ferimento,CONDUTOR,08 - Não informada,Sem Info.,Sem Info.,1,1,1,Rua Francisco Derosso 5100,-25.5297578,-49.2475425,676091.576690308,7175229.96424381
BATEU Local,7848,17/08/2011,11:00,Rua Rio Negro,Rua Jose De Oliveira Franco,Rua Rio Negro X Rua Jose De Oliveira Franco,820,Bom,ABALROAMENTO TRANSVERSAL,BICICLETA,COM VÍTIMAS,Ferimento,CONDUTOR,01 - Entre  0 e 11 anos,Sem Info.,Sem Info.,1,1,1,Rua Rio Negro 820,-25.42449,-49.2004649,680980.618137086,7186827.290235
BATEU Local,7760,19/09/2011,17:00,Rua Lodovico Geronazzo,Avenida Parana,Rua Lodovico Geronazzo X Avenida Parana,0,Bom,ABALROAMENTO TRANSVERSAL,BICICLETA,COM VÍTIMAS,Sem Ferimentos,CONDUTOR,04 - Entre 30 e 40 anos,Não Embriagado,Não realizou teste etilométrico,1,1,0,Rua Lodovico Geronazzo X Avenida Parana,-25.39201,-49.23901,677150.783236118,7190476.77252221
BATEU Local,7755,18/09/2011,16:00,Rua Humberto Giraldi,Rua Da Trindade,Rua Humberto Giraldi X Rua Da Trindade,550,Bom,ABALROAMENTO TRANSVERSAL,BICICLETA,COM VÍTIMAS,Não informado,CONDUTOR,06 - Entre 51 e 59 anos,Sem Info.,Sem Info.,1,1,0,Rua Humberto Giraldi 550,-25.4485258,-49.2067018,680317.434282756,7184173.30231958
BATEU Local,7723,10/09/2011,12:00,Rua Herculano De Araujo Filho,Rua Emilio Romani,Rua Herculano De Araujo Filho X Rua Emilio Romani,2991,Bom,ATROPELAMENTO,BICICLETA,COM VÍTIMAS,Óbito no Local,PEDESTRE,05 - Entre 41 e 50 anos,Sem Info.,Sem Info.,1,1,1,Rua Herculano De Araujo Filho 2991,-25.52823,-49.33731,667071.97132832,7175515.10600043
BATEU Local,7710,28/10/2011,20:00,Rua Comendador Joao Lackner,Rua Alagoas,Rua Comendador Joao Lackner X Rua Alagoas,0,Bom,ABALROAMENTO TRANSVERSAL,BICICLETA,COM VÍTIMAS,Sem Ferimentos,CONDUTOR,03 - Entre 18 e 29 anos,Não Embriagado,Não realizou teste etilométrico,1,1,0,Rua Comendador Joao Lackner X Rua Alagoas,-25.46803,-49.26755,674169.809630654,7182093.80138142
BATEU Local,7397,21/11/2011,08:00,Rua Francisco Zanicotti Sobrinho,Rua Fernando De Noronha,Rua Francisco Zanicotti Sobrinho X Rua Fernando De Noronha,372,Nublado,COLISAO FRONTAL,BICICLETA,COM VÍTIMAS,Sem Ferimentos,RESPONSAVEL,05 - Entre 41 e 50 anos,Sem Info.,Sem Info.,1,1,0,Rua Francisco Zanicotti Sobrinho 372,-25.3809142,-49.2321961,677852.64414019,7191696.77514755
BATEU Local,7128,13/12/2011,12:00,Rua Alferes Angelo Sampaio,Avenida Iguacu,Rua Alferes Angelo Sampaio X Avenida Iguacu,2063,Nublado,ABALROAMENTO TRANSVERSAL,BICICLETA,COM VÍTIMAS,Ferimento,CONDUTOR,03 - Entre 18 e 29 anos,Não Embriagado,Não realizou teste etilométrico,1,1,1,Rua Alferes Angelo Sampaio 2063,-25.4364239,-49.2879724,672161.247801672,7185621.25736918
BATEU Local,7045,18/12/2011,09:00,Rua Marechal Deodoro,Alameda Doutor Muricy,Rua Marechal Deodoro X Alameda Doutor Muricy,0,Bom,ACIDENTE COMPLEXO,BICICLETA,COM VÍTIMAS,Ferimento,CONDUTOR,07 - 60 ou mais,Não Embriagado,Não realizou teste etilométrico,1,1,1,Rua Marechal Deodoro X Alameda Doutor Muricy,-25.43248,-49.2722,673753.281766825,7186037.65220932
BATEU Local,6878,21/11/2011,18:00,Avenida Silva Jardim,Avenida Republica Argentina,Avenida Silva Jardim X Avenida Republica Argentina,0,Bom,ABALROAMENTO TRANSVERSAL,BICICLETA,COM VÍTIMAS,Sem Ferimentos,CONDUTOR,03 - Entre 18 e 29 anos,Sem Info.,Sem Info.,1,1,0,Avenida Silva Jardim X Avenida Republica Argentina,-25.44742,-49.28775,672167.974865359,7184402.96938447
BATEU Local,5824,14/12/2011,13:00,Rua Presidente Carlos Cavalcanti,Avenida Manoel Ribas,Rua Presidente Carlos Cavalcanti X Avenida Manoel Ribas,0,Chuva Fraca,ACIDENTE COMPLEXO,BICICLETA,SEM VÍTIMAS,Sem Ferimentos,CONDUTOR,08 - Não informada,Sem Info.,Sem Info.,1,1,0,Rua Presidente Carlos Cavalcanti X Avenida Manoel Ribas,-25.42425,-49.27947,673033.804327451,7186958.71514661
BATEU Local,5804,03/11/2011,17:00,Rua Jose Kaminski,Rua General Potiguara,Rua Jose Kaminski X Rua General Potiguara,0,Bom,ABALROAMENTO TRANSVERSAL,BICICLETA,COM VÍTIMAS,Sem Ferimentos,CONDUTOR,07 - 60 ou mais,Não Embriagado,Não realizou teste etilométrico,1,1,0,Rua Jose Kaminski X Rua General Potiguara,-25.49349,-49.312,669664.496407625,7179331.07766705
BATEU Local,5301,01/09/2011,18:00,Rua Romano Bertagnoli,Avenida Candido Hartmann,Rua Romano Bertagnoli X Avenida Candido Hartmann,0,Bom,ABALROAMENTO TRANSVERSAL,BICICLETA,COM VÍTIMAS,Sem Ferimentos,CONDUTOR,05 - Entre 41 e 50 anos,Não Embriagado,Não realizou teste etilométrico,1,1,0,Rua Romano Bertagnoli X Avenida Candido Hartmann,-25.42295,-49.30446,670521.91852983,7187134.89160571
BATEU Local,5227,22/08/2011,17:00,Rua Professor Nivaldo Braga,Avenida Prefeito Mauricio Fruet,Rua Professor Nivaldo Braga X Avenida Prefeito Mauricio Fruet,0,Nublado,ABALROAMENTO TRANSVERSAL,BICICLETA,COM VÍTIMAS,Sem Ferimentos,RESPONSAVEL,04 - Entre 30 e 40 anos,Sem Info.,Sem Info.,1,1,0,Rua Professor Nivaldo Braga X Avenida Prefeito Mauricio Fruet,-25.44039,-49.22089,678902.534637872,7185093.6193257
BATEU Local,5214,20/08/2011,12:00,Rua Rio Mucuri,Rua Rio Araguari,Rua Rio Mucuri X Rua Rio Araguari,946,Nublado,ABALROAMENTO TRANSVERSAL,BICICLETA,COM VÍTIMAS,Sem Ferimentos,CONDUTOR,05 - Entre 41 e 50 anos,Sem Info.,Sem Info.,1,1,0,Rua Rio Mucuri 946,-25.39755,-49.20393,680672.211800218,7189816.11353749
BATEU Local,4857,27/05/2011,07:00,Rua Deputado Acyr Jose,-,Rua Deputado Acyr Jose X ,0,Nublado,COLISAO FRONTAL,BICICLETA,COM VÍTIMAS,Sem Ferimentos,CONDUTOR,05 - Entre 41 e 50 anos,Não Embriagado,Não Embriagado,1,1,0,Rua Deputado Acyr Jose X ,-25.47331,-49.20037,680917.151893245,7181419.37001288
BATEU Local,4802,15/07/2011,13:00,Rua Paulo Kissula,Rua Delegado Leopoldo Belczak,Rua Paulo Kissula X Rua Delegado Leopoldo Belczak,0,Bom,ABALROAMENTO TRANSVERSAL,BICICLETA,COM VÍTIMAS,Ferimento,CONDUTOR,07 - 60 ou mais,Sem Info.,Sem Info.,1,1,1,Rua Paulo Kissula X Rua Delegado Leopoldo Belczak,-25.44339,-49.20848,680146.243276296,7184744.59788461
BATEU Local,4722,09/05/2011,18:00,Rua Vereador Elias Karam,Rua Arthur Martins Franco,Rua Vereador Elias Karam X Rua Arthur Martins Franco,0,Bom,ABALROAMENTO TRANSVERSAL,BICICLETA,COM VÍTIMAS,Ferimento,CONDUTOR,02 - Entre 12 e 17 anos,Sem Info.,Sem Info.,1,1,1,Rua Vereador Elias Karam X Rua Arthur Martins Franco,-25.4812,-49.33437,667432.66965372,7180720.72191388
BATEU Local,4663,11/05/2011,08:00,Rua Desembargador Westphalen,Rua Chile,Rua Desembargador Westphalen X Rua Chile,0,Bom,ABALROAMENTO TRANSVERSAL,BICICLETA,COM VÍTIMAS,Sem Ferimentos,CONDUTOR,04 - Entre 30 e 40 anos,Não Embriagado,Não Embriagado,1,1,0,Rua Desembargador Westphalen X Rua Chile,-25.45036,-49.26471,674480.870982003,7184047.34950694
BATEU Local,4526,22/04/2011,14:00,Rua Professor Guilherme Butler,Rua Jean Jacques Rousseau,Rua Professor Guilherme Butler X Rua Jean Jacques Rousseau,0,Bom,ABALROAMENTO TRANSVERSAL,BICICLETA,COM VÍTIMAS,Ferimento,CONDUTOR,08 - Não informada,Sem Info.,Sem Info.,1,1,1,Rua Professor Guilherme Butler X Rua Jean Jacques Rousseau,-25.37511,-49.25778,675286.608515492,7192373.49933591
BATEU Local,4250,19/04/2011,17:00,Rua Gilberto Kaminski,Rua Desembargador Cid Campelo,Rua Gilberto Kaminski X Rua Desembargador Cid Campelo,0,Bom,ABALROAMENTO TRANSVERSAL,BICICLETA,COM VÍTIMAS,Ferimento,CONDUTOR,02 - Entre 12 e 17 anos,Sem Info.,Sem Info.,1,1,1,Rua Gilberto Kaminski X Rua Desembargador Cid Campelo,-25.51495,-49.33155,667669.31708053,7176978.82602295
BATEU Local,4242,16/08/2011,18:00,Rua Bruno Filgueira,Avenida Sete De Setembro,Rua Bruno Filgueira X Avenida Sete De Setembro,469,Bom,ABALROAMENTO TRANSVERSAL,BICICLETA,COM VÍTIMAS,Ferimento,CONDUTOR,03 - Entre 18 e 29 anos,Sem Info.,Sem Info.,1,1,1,Rua Bruno Filgueira 469,-25.4454243,-49.2896444,671980.291774352,7184626.47211197
BATEU Local,4042,15/04/2011,19:00,Rua Tenente Coronel Benjamin Lage,Rua Professor Francisco Mendes,Rua Tenente Coronel Benjamin Lage X Rua Professor Francisco Mendes,350,Bom,ABALROAMENTO TRANSVERSAL,BICICLETA,SEM VÍTIMAS,Sem Ferimentos,CONDUTOR,01 - Entre  0 e 11 anos,Sem Info.,Sem Info.,1,1,0,Rua Tenente Coronel Benjamin Lage 350,-25.49749,-49.22133,678773.818501679,7178769.27296398
BATEU Local,4020,03/04/2011,15:00,Rua Dom Geraldo Micheletto Pellanda,-,Rua Dom Geraldo Micheletto Pellanda X ,0,Nublado,ABALROAMENTO TRANSVERSAL,BICICLETA,COM VÍTIMAS,Ferimento,CONDUTOR,01 - Entre  0 e 11 anos,Sem Info.,Sem Info.,1,1,1,Rua Dom Geraldo Micheletto Pellanda X ,-25.55687,-49.2618099,674618.373506024,7172245.60458846
BATEU Local,3892,11/08/2011,15:00,Rua Leonardo Abagge,Rua Joao Socha,Rua Leonardo Abagge X Rua Joao Socha,331,Nublado,ABALROAMENTO TRANSVERSAL,BICICLETA,COM VÍTIMAS,Ferimento,CONDUTOR,06 - Entre 51 e 59 anos,Não Embriagado,Não realizou teste etilométrico,1,1,1,Rua Leonardo Abagge 331,-25.53197,-49.27642,673186.15222722,7175022.87675497
BATEU Local,3799,11/06/2011,03:00,Rua Visconde De Nacar,Rua Martim Afonso,Rua Visconde De Nacar X Rua Martim Afonso,0,Bom,ABALROAMENTO TRANSVERSAL,BICICLETA,COM VÍTIMAS,Ferimento,PEDESTRE,08 - Não informada,Sem Info.,Sem Info.,1,1,1,Rua Visconde De Nacar X Rua Martim Afonso,-25.42685,-49.28067,672909.385706768,7186672.27792812
BATEU Local,3744,01/04/2011,13:00,Rua Comendador Jacques Van Erven,Rua Caetano Marchesini,Rua Comendador Jacques Van Erven X Rua Caetano Marchesini,0,Nublado,ABALROAMENTO TRANSVERSAL,BICICLETA,COM VÍTIMAS,Sem Ferimentos,CONDUTOR,04 - Entre 30 e 40 anos,Sem Info.,Sem Info.,1,1,0,Rua Comendador Jacques Van Erven X Rua Caetano Marchesini,-25.47693,-49.3,670894.290438036,7181150.01921934
BATEU Local,3738,28/03/2011,14:00,Rua Rio Grande Do Sul,Avenida Republica Argentina,Rua Rio Grande Do Sul X Avenida Republica Argentina,0,Não Identificado,ABALROAMENTO TRANSVERSAL,BICICLETA,COM VÍTIMAS,Não informado,RESPONSAVEL,05 - Entre 41 e 50 anos,Sem Info.,Sem Info.,1,1,0,Rua Rio Grande Do Sul X Avenida Republica Argentina,-25.46186,-49.29004,671917.147614336,7182806.45433154
BATEU Local,3728,29/03/2011,10:00,Rua Das Sabias,Rua Adalberto Scherer,Rua Das Sabias X Rua Adalberto Scherer,379,Nublado,ABALROAMENTO TRANSVERSAL,BICICLETA,COM VÍTIMAS,Sem Ferimentos,CONDUTOR,04 - Entre 30 e 40 anos,Não Embriagado,Não realizou teste etilométrico,1,1,0,Rua Das Sabias 379,-25.49341,-49.28136,672744.883241262,7179300.51392431
BATEU Local,3507,06/04/2011,09:00,Avenida Presidente Wenceslau Braz,-,Avenida Presidente Wenceslau Braz X ,1760,Bom,ABALROAMENTO TRANSVERSAL,BICICLETA,COM VÍTIMAS,Sem Ferimentos,RESPONSAVEL,07 - 60 ou mais,Sem Info.,Sem Info.,1,1,0,Avenida Presidente Wenceslau Braz 1760,-25.474178,-49.2719618,673717.353488736,7181418.56461577
BATEU Local,3469,18/03/2011,07:00,Rua Das Carmelitas,Avenida Nossa Senhora Da Paz,Rua Das Carmelitas X Avenida Nossa Senhora Da Paz,905,Bom,ABALROAMENTO TRANSVERSAL,BICICLETA,COM VÍTIMAS,Ferimento,CONDUTOR,04 - Entre 30 e 40 anos,Não Embriagado,Não realizou teste etilométrico,1,1,1,Rua Das Carmelitas 905,-25.4816084,-49.2403976,676880.210698215,7180553.94915128
BATEU Local,3264,28/03/2011,16:00,Rua Xingu,Rua Rio Japura,Rua Xingu X Rua Rio Japura,1288,Bom,ABALROAMENTO TRANSVERSAL,BICICLETA,COM VÍTIMAS,-,-,-,Sem Info.,Sem Info.,1,0,0,Rua Xingu 1288,-25.4020599,-49.1994296,681118.27956084,7189310.45725689
BATEU Local,3236,23/03/2011,13:00,Rua Prefeito Angelo Lopes,Avenida Sete De Setembro,Rua Prefeito Angelo Lopes X Avenida Sete De Setembro,0,Nublado,ABALROAMENTO TRANSVERSAL,BICICLETA,COM VÍTIMAS,Ferimento,CONDUTOR,03 - Entre 18 e 29 anos,Sem Info.,Sem Info.,1,1,1,Rua Prefeito Angelo Lopes X Avenida Sete De Setembro,-25.42874,-49.24364,676631.391994627,7186414.40391556
BATEU Local,3191,17/03/2011,17:00,Rua Olivia G. Freitas,Avenida Tres Marias,Rua Olivia G. Freitas X Avenida Tres Marias,0,Nublado,ABALROAMENTO TRANSVERSAL,BICICLETA,COM VÍTIMAS,Sem Ferimentos,CONDUTOR,04 - Entre 30 e 40 anos,Sem Info.,Sem Info.,1,1,0,Rua Olivia G. Freitas X Avenida Tres Marias,-25.42386,-49.36119,664814.289038953,7187105.39869949
BATEU Local,2981,05/05/2011,17:00,Rua Euclides Bandeira,Rua Deputado Mario De Barros,Rua Euclides Bandeira X Rua Deputado Mario De Barros,1700,Bom,ABALROAMENTO TRANSVERSAL,BICICLETA,COM VÍTIMAS,Sem Ferimentos,CONDUTOR,06 - Entre 51 e 59 anos,Não Embriagado,Não realizou teste etilométrico,1,1,0,Rua Euclides Bandeira 1700,-25.4058321,-49.2699491,674017.951835636,7188986.42435179
BATEU Local,2845,04/03/2011,19:00,Rua Dos Presbiteros,Avenida Manoel Ribas,Rua Dos Presbiteros X Avenida Manoel Ribas,0,Nublado,NAO IDENTIFICADO,BICICLETA,COM VÍTIMAS,Sem Ferimentos,CONDUTOR,04 - Entre 30 e 40 anos,Não Embriagado,Não realizou teste etilométrico,1,1,0,Rua Dos Presbiteros X Avenida Manoel Ribas,-25.42516,-49.27939,673040.551514516,7186857.81368264
BATEU Local,2835,27/02/2011,08:00,Rua Jose Clementino Bettega,Rua Antonio Gasparin,Rua Jose Clementino Bettega X Rua Antonio Gasparin,0,Bom,ACIDENTE COMPLEXO,BICICLETA,SEM VÍTIMAS,Sem Ferimentos,CONDUTOR,04 - Entre 30 e 40 anos,Sem Info.,Sem Info.,1,1,0,Rua Jose Clementino Bettega X Rua Antonio Gasparin,-25.49937,-49.29753,671110.844308732,7178661.23727079
BATEU Local,2812,04/03/2011,18:00,Rua Caetano Alessi,Avenida Manoel Ribas,Rua Caetano Alessi X Avenida Manoel Ribas,0,Chuva Fraca,ABALROAMENTO TRANSVERSAL,BICICLETA,COM VÍTIMAS,Sem Ferimentos,CONDUTOR,07 - 60 ou mais,Não Embriagado,Não realizou teste etilométrico,1,1,0,Rua Caetano Alessi X Avenida Manoel Ribas,-25.39392,-49.34939,666042.221155623,7190407.03968798
BATEU Local,2794,29/08/2011,07:00,Rua Lourenco Pinto,Avenida Sete De Setembro,Rua Lourenco Pinto X Avenida Sete De Setembro,0,Bom,COLISAO FRONTAL,BICICLETA,COM VÍTIMAS,Sem Ferimentos,RESPONSAVEL,03 - Entre 18 e 29 anos,Sem Info.,Sem Info.,1,1,0,Rua Lourenco Pinto X Avenida Sete De Setembro,-25.43788,-49.2673,674238.36603064,7185433.11523916
BATEU Local,2770,02/05/2011,16:00,Travessa Da Lapa,Rua Jose Loureiro,Travessa Da Lapa X Rua Jose Loureiro,573,Bom,ATROPELAMENTO,BICICLETA,COM VÍTIMAS,Sem Ferimentos,CONDUTOR,05 - Entre 41 e 50 anos,Não Embriagado,Não realizou teste etilométrico,1,1,0,Travessa Da Lapa 573,-25.4345407,-49.26581,674393.037818681,7185801.05256161
BATEU Local,2753,06/05/2011,06:00,Rua Ponta Grossa,Avenida Presidente Kennedy,Rua Ponta Grossa X Avenida Presidente Kennedy,0,Bom,ABALROAMENTO TRANSVERSAL,BICICLETA,COM VÍTIMAS,Ferimento,CONDUTOR,08 - Não informada,Sem Info.,Sem Info.,1,1,1,Rua Ponta Grossa X Avenida Presidente Kennedy,-25.47429,-49.28832,672072.414324686,7181427.40014782
BATEU Local,2743,26/04/2011,14:00,Rua Padre Ludovico Bronny,Rua Joao Tschannerl,Rua Padre Ludovico Bronny X Rua Joao Tschannerl,0,Bom,ABALROAMENTO TRANSVERSAL,BICICLETA,COM VÍTIMAS,Ferimento,CONDUTOR,04 - Entre 30 e 40 anos,Não Embriagado,Não realizou teste etilométrico,1,1,1,Rua Padre Ludovico Bronny X Rua Joao Tschannerl,-25.40275,-49.28834,672172.119397813,7189351.66490657
BATEU Local,2740,23/04/2011,16:00,Avenida Florianopolis,Rua Leonardo Gelinski,Avenida Florianopolis X Rua Leonardo Gelinski,0,Nublado,ABALROAMENTO TRANSVERSAL,BICICLETA,SEM VÍTIMAS,Não informado,CONDUTOR,08 - Não informada,Sem Info.,Sem Info.,1,1,0,Avenida Florianopolis X Rua Leonardo Gelinski,-25.44807,-49.20153,680838.252066053,7184216.78344678
BATEU Local,2698,23/03/2011,16:00,Rua Professor Oscar Martins Gomes,Rua Coronel Luiz Jose Dos Santos,Rua Professor Oscar Martins Gomes X Rua Coronel Luiz Jose Dos Santos,4073,Bom,ABALROAMENTO TRANSVERSAL,BICICLETA,COM VÍTIMAS,Ferimento,CONDUTOR,08 - Não informada,Sem Info.,Sem Info.,1,1,1,Rua Professor Oscar Martins Gomes 4073,-25.50837,-49.26562,674305.653312704,7177622.89199513
BATEU Local,2671,13/06/2011,18:00,Rua Antonio Meirelles Sobrinho,Rua Albina Reffo Bocchino,Rua Antonio Meirelles Sobrinho X Rua Albina Reffo Bocchino,0,Bom,ABALROAMENTO TRANSVERSAL,BICICLETA,COM VÍTIMAS,Ferimento,CONDUTOR,08 - Não informada,Não Embriagado,Não realizou teste etilométrico,1,1,1,Rua Antonio Meirelles Sobrinho X Rua Albina Reffo Bocchino,-25.44567,-49.21991,678993.292021386,7184507.44255468
BATEU Local,2660,12/11/2011,23:00,Rua Salvador Ferrante,Avenida Marechal Floriano Peixoto,Rua Salvador Ferrante X Avenida Marechal Floriano Peixoto,8043,Bom,ACIDENTE COMPLEXO,BICICLETA,COM VÍTIMAS,Não informado,PASSAGEIRO,02 - Entre 12 e 17 anos,Sem Info.,Sem Info.,1,1,0,Rua Salvador Ferrante 8043,-25.49528,-49.23384,677519.43647337,7179030.82582717
BATEU Local,2645,25/04/2011,17:00,Rua Madre Maria Dos Anjos,Rua Baltazar Carrasco Dos Reis,Rua Madre Maria Dos Anjos X Rua Baltazar Carrasco Dos Reis,0,Nublado,ABALROAMENTO TRANSVERSAL,BICICLETA,SEM VÍTIMAS,Sem Ferimentos,CONDUTOR,04 - Entre 30 e 40 anos,Sem Info.,Sem Info.,1,1,0,Rua Madre Maria Dos Anjos X Rua Baltazar Carrasco Dos Reis,-25.45247,-49.27536,673406.798791197,7183827.53189771
BATEU Local,2630,06/05/2011,13:00,Rua Doutor Nelson De Souza Pinto,Rua Cecilia Meireles,Rua Doutor Nelson De Souza Pinto X Rua Cecilia Meireles,0,Bom,ABALROAMENTO TRANSVERSAL,BICICLETA,COM VÍTIMAS,Sem Ferimentos,CONDUTOR,03 - Entre 18 e 29 anos,Sem Info.,Sem Info.,1,1,0,Rua Doutor Nelson De Souza Pinto X Rua Cecilia Meireles,-25.39866,-49.26989,674034.191203591,7189780.77738638
BATEU Local,2619,25/04/2011,15:00,Rua Eduardo Sprada,Avenida Juscelino Kubitschek De Oliveira,Rua Eduardo Sprada X Avenida Juscelino Kubitschek De Oliveira,0,Nublado,ABALROAMENTO TRANSVERSAL,BICICLETA,COM VÍTIMAS,Ferimento,CONDUTOR,07 - 60 ou mais,Sem Info.,Sem Info.,1,1,1,Rua Eduardo Sprada X Avenida Juscelino Kubitschek De Oliveira,-25.4517,-49.363,664594.373133293,7184023.96787774
BATEU Local,2552,13/04/2011,07:00,Rua Herbert Neal,Rua Da Divina Providencia,Rua Herbert Neal X Rua Da Divina Providencia,0,Nublado,ABALROAMENTO LATERAL,BICICLETA,COM VÍTIMAS,Sem Ferimentos,CONDUTOR,04 - Entre 30 e 40 anos,Sem Info.,Sem Info.,1,1,0,Rua Herbert Neal X Rua Da Divina Providencia,-25.46183,-49.31609,669297.67418707,7182843.14068396
BATEU Local,2480,25/02/2011,18:00,Rua Rodrigues Alves,Avenida Iguacu,Rua Rodrigues Alves X Avenida Iguacu,0,Chuva Fraca,ABALROAMENTO TRANSVERSAL,BICICLETA,COM VÍTIMAS,Sem Ferimentos,RESPONSAVEL,06 - Entre 51 e 59 anos,Sem Info.,Sem Info.,1,1,0,Rua Rodrigues Alves X Avenida Iguacu,-25.45351,-49.29957,670970.637188402,7183743.61875441
BATEU Local,2435,14/02/2011,07:00,Rua Pedro Gusso,-,Rua Pedro Gusso X ,0,Nublado,ABALROAMENTO TRANSVERSAL,BICICLETA,COM VÍTIMAS,Sem Ferimentos,CONDUTOR,05 - Entre 41 e 50 anos,Não Embriagado,Não realizou teste etilométrico,1,1,0,Rua Pedro Gusso X ,-25.50277,-49.31401,669449.405236791,7178305.72663852
BATEU Local,2404,22/02/2011,15:00,Rua Lourenco Pinto,Avenida Sete De Setembro,Rua Lourenco Pinto X Avenida Sete De Setembro,0,Chuva Fraca,CHOQUE,BICICLETA,COM VÍTIMAS,Ferimento,CONDUTOR,03 - Entre 18 e 29 anos,Não Embriagado,Não realizou teste etilométrico,1,1,1,Rua Lourenco Pinto X Avenida Sete De Setembro,-25.43788,-49.2673,674238.36603064,7185433.11523916
BATEU Local,2389,14/02/2011,09:00,Rua Major Jose Dequech,Alameda Princesa Izabel,Rua Major Jose Dequech X Alameda Princesa Izabel,0,Nublado,ABALROAMENTO TRANSVERSAL,BICICLETA,COM VÍTIMAS,Ferimento,CONDUTOR,04 - Entre 30 e 40 anos,Não Embriagado,Não realizou teste etilométrico,1,1,1,Rua Major Jose Dequech X Alameda Princesa Izabel,-25.38614,-49.32827,668177.941588255,7191242.35951857
BATEU Local,2266,15/02/2011,07:00,Rua Olindo Caetani,Br 277,Rua Olindo Caetani X Br 277,0,Chuva Fraca,COLISAO FRONTAL,BICICLETA,COM VÍTIMAS,Ferimento,CONDUTOR,06 - Entre 51 e 59 anos,Sem Info.,Sem Info.,1,1,1,Rua Olindo Caetani X Br 277,-25.4826162,-49.2001972,680920.593091599,7180388.28367804
BATEU Local,2204,08/02/2011,16:00,Rua Marcos Antonio Malucelli,Rua Geraldino Ramiro Dos Santos,Rua Marcos Antonio Malucelli X Rua Geraldino Ramiro Dos Santos,0,Bom,ABALROAMENTO TRANSVERSAL,BICICLETA,COM VÍTIMAS,Ferimento,CONDUTOR,08 - Não informada,Sem Info.,Sem Info.,1,1,1,Rua Marcos Antonio Malucelli X Rua Geraldino Ramiro Dos Santos,-25.48608,-49.35274,665579.065506297,7180203.16728707
BATEU Local,2167,28/03/2011,14:00,Rua Jose Augusto Da Silva,Rua Cidade De Saudades,Rua Jose Augusto Da Silva X Rua Cidade De Saudades,114,Bom,ABALROAMENTO TRANSVERSAL,BICICLETA,COM VÍTIMAS,Sem Ferimentos,CONDUTOR,08 - Não informada,Sem Info.,Sem Info.,1,1,0,Rua Jose Augusto Da Silva 114,-25.5349311,-49.2621364,674617.363114426,7174676.18384108
BATEU Local,2153,06/06/2011,15:00,Rua Simao Brante,Rua Egydio Pilotto,Rua Simao Brante X Rua Egydio Pilotto,632,Bom,ABALROAMENTO TRANSVERSAL,BICICLETA,COM VÍTIMAS,Sem Ferimentos,CONDUTOR,04 - Entre 30 e 40 anos,Não Embriagado,Não realizou teste etilométrico,1,1,0,Rua Simao Brante 632,-25.48454,-49.22968,677953.472713597,7180214.93230344
BATEU Local,2145,19/04/2011,09:00,Rua Gabriel Freceiro De Miranda,Rua Francisco Derosso,Rua Gabriel Freceiro De Miranda X Rua Francisco Derosso,0,Nublado,ACIDENTE COMPLEXO,BICICLETA,SEM VÍTIMAS,Sem Ferimentos,CONDUTOR,05 - Entre 41 e 50 anos,Sem Info.,Sem Info.,1,1,0,Rua Gabriel Freceiro De Miranda X Rua Francisco Derosso,-25.4966,-49.2723,673651.113801186,7178935.37058986
BATEU Local,2106,23/02/2011,07:00,Rua Dos Ferroviarios,Rua Cidade De Montero,Rua Dos Ferroviarios X Rua Cidade De Montero,0,Bom,ABALROAMENTO TRANSVERSAL,BICICLETA,COM VÍTIMAS,Sem Ferimentos,RESPONSAVEL,05 - Entre 41 e 50 anos,Não Embriagado,Não realizou teste etilométrico,1,1,0,Rua Dos Ferroviarios X Rua Cidade De Montero,-25.45012,-49.20626,680359.490392365,7183996.11528433
BATEU Local,2072,10/06/2011,16:00,Avenida Senador Salgado Filho,Rua Luiz Guimaraes Junior,Avenida Senador Salgado Filho X Rua Luiz Guimaraes Junior,0,Bom,ABALROAMENTO TRANSVERSAL,BICICLETA,COM VÍTIMAS,Ferimento,CONDUTOR,03 - Entre 18 e 29 anos,Não Embriagado,Não realizou teste etilométrico,1,1,1,Avenida Senador Salgado Filho X Rua Luiz Guimaraes Junior,-25.46574,-49.24301,676640.742605132,7182315.14031367
BATEU Local,2053,07/02/2011,18:00,Rua Presidente Joao Goulart,Rua Irineu Makcemiv,Rua Presidente Joao Goulart X Rua Irineu Makcemiv,0,Bom,ABALROAMENTO TRANSVERSAL,BICICLETA,COM VÍTIMAS,Sem Ferimentos,CONDUTOR,05 - Entre 41 e 50 anos,Não Embriagado,Não realizou teste etilométrico,1,1,0,Rua Presidente Joao Goulart X Rua Irineu Makcemiv,-25.57473,-49.32914,667828.259295903,7170354.16086028
BATEU Local,2036,11/02/2011,11:00,Rua Mandirituba,Rua Apucarana,Rua Mandirituba X Rua Apucarana,0,Nublado,COLISAO TRASEIRA,BICICLETA,COM VÍTIMAS,Ferimento,CONDUTOR,06 - Entre 51 e 59 anos,Sem Info.,Sem Info.,1,1,1,Rua Mandirituba X Rua Apucarana,-25.54023,-49.27487,673330.047593186,7174105.90862039
BATEU Local,2031,07/06/2011,07:00,Rua Waldemar Loureiro Campos,Rua Professor Joao Soares Barcelos,Rua Waldemar Loureiro Campos X Rua Professor Joao Soares Barcelos,0,Bom,ABALROAMENTO LATERAL,BICICLETA,COM VÍTIMAS,Sem Ferimentos,RESPONSAVEL,03 - Entre 18 e 29 anos,Sem Info.,Sem Info.,1,1,0,Rua Waldemar Loureiro Campos X Rua Professor Joao Soares Barcelos,-25.50538,-49.24252,676632.04387491,7177923.61132103
BATEU Local,2019,27/05/2011,17:00,Rua Jair Coelho,Rua Antonio Dionisio Sobrinho,Rua Jair Coelho X Rua Antonio Dionisio Sobrinho,0,Bom,ABALROAMENTO TRANSVERSAL,BICICLETA,COM VÍTIMAS,Sem Ferimentos,CONDUTOR,04 - Entre 30 e 40 anos,Não Embriagado,Não realizou teste etilométrico,1,1,0,Rua Jair Coelho X Rua Antonio Dionisio Sobrinho,-25.49194,-49.34834,666013.367377175,7179548.60268927
BATEU Local,1986,03/03/2011,07:00,Rua Paulo Kissula,Rua Osmario De Lima,Rua Paulo Kissula X Rua Osmario De Lima,503,Chuva Fraca,ABALROAMENTO TRANSVERSAL,BICICLETA,COM VÍTIMAS,Ferimento,CONDUTOR,08 - Não informada,Sem Info.,Sem Info.,1,1,1,Rua Paulo Kissula 503,-25.4398681,-49.2066292,680337.636417193,7185132.21488431
BATEU Local,1930,01/03/2011,18:00,Rua David Tows,-,Rua David Tows X ,1721,Nublado,ABALROAMENTO TRANSVERSAL,BICICLETA,COM VÍTIMAS,-,-,-,Sem Info.,Sem Info.,1,0,0,Rua David Tows 1721,-25.52779,-49.26026,674816.292298688,7175464.727701
BATEU Local,1881,21/02/2011,18:00,Rua Arcesio De Barros Lima,Avenida Pero Vaz De Caminha,Rua Arcesio De Barros Lima X Avenida Pero Vaz De Caminha,0,Bom,ABALROAMENTO TRANSVERSAL,BICICLETA,COM VÍTIMAS,Ferimento,CONDUTOR,03 - Entre 18 e 29 anos,Sem Info.,Sem Info.,1,1,1,Rua Arcesio De Barros Lima X Avenida Pero Vaz De Caminha,-25.5706099,-49.33593,667151.844567929,7170819.10302876
BATEU Local,1753,31/01/2011,18:00,Rua Julio Salsamendi,-,Rua Julio Salsamendi X ,0,Bom,ABALROAMENTO TRANSVERSAL,BICICLETA,COM VÍTIMAS,Sem Ferimentos,CONDUTOR,03 - Entre 18 e 29 anos,Sem Info.,Sem Info.,1,1,0,Rua Julio Salsamendi X ,-25.56425,-49.33731,667022.027496319,7171525.30505176
BATEU Local,1626,31/01/2011,11:00,Rua Das Carmelitas,Rua Antonio Schiebel,Rua Das Carmelitas X Rua Antonio Schiebel,0,Bom,ACIDENTE COMPLEXO,BICICLETA,COM VÍTIMAS,Ferimento,CONDUTOR,08 - Não informada,Sem Info.,Sem Info.,1,1,1,Rua Das Carmelitas X Rua Antonio Schiebel,-25.49708,-49.23284,677617.320253298,7178830.10620068
BATEU Local,1466,17/12/2011,22:00,Alameda Julia Da Costa,Alameda Cabral,Alameda Julia Da Costa X Alameda Cabral,0,Bom,COLISAO FRONTAL,BICICLETA,COM VÍTIMAS,Ferimento,CONDUTOR,03 - Entre 18 e 29 anos,Não Embriagado,Não realizou teste etilométrico,1,1,1,Alameda Julia Da Costa X Alameda Cabral,-25.42752,-49.27893,673083.449821845,7186595.80737585
BATEU Local,1441,06/05/2011,14:00,Rua Tijucas Do Sul,Rua Dos Pioneiros,Rua Tijucas Do Sul X Rua Dos Pioneiros,0,Bom,ABALROAMENTO TRANSVERSAL,BICICLETA,COM VÍTIMAS,Sem Ferimentos,RESPONSAVEL,03 - Entre 18 e 29 anos,Sem Info.,Sem Info.,1,1,0,Rua Tijucas Do Sul X Rua Dos Pioneiros,-25.53552,-49.27346,673478.522202291,7174625.7873555
BATEU Local,1332,04/01/2011,21:00,Rua Frei Teofilo,Rua Frei Teofilo,Rua Frei Teofilo X Rua Frei Teofilo,0,Nublado,ABALROAMENTO TRANSVERSAL,BICICLETA,COM VÍTIMAS,Sem Ferimentos,RESPONSAVEL,04 - Entre 30 e 40 anos,Não Embriagado,Não realizou teste etilométrico,1,1,0,Rua Frei Teofilo X Rua Frei Teofilo,-25.50247,-49.30186,670671.183582424,7178323.42239474
BATEU Local,1190,02/01/2011,11:00,Rua Izidoro Stavitzki,Rua Cid Marcondes De Albuquerque,Rua Izidoro Stavitzki X Rua Cid Marcondes De Albuquerque,0,Nublado,ABALROAMENTO TRANSVERSAL,BICICLETA,SEM VÍTIMAS,Sem Ferimentos,CONDUTOR,05 - Entre 41 e 50 anos,Não Embriagado,Não realizou teste etilométrico,1,1,0,Rua Izidoro Stavitzki X Rua Cid Marcondes De Albuquerque,-25.52113,-49.27305,673540.436895823,7176219.20838633
BATEU Local,1140,08/01/2011,17:00,Rua Odir Gomes Da Rocha,Rua Engenheiro Joao Kloss,Rua Odir Gomes Da Rocha X Rua Engenheiro Joao Kloss,925,Bom,ABALROAMENTO TRANSVERSAL,BICICLETA,COM VÍTIMAS,Ferimento,CONDUTOR,01 - Entre  0 e 11 anos,Sem Info.,Sem Info.,1,1,1,Rua Odir Gomes Da Rocha 925,-25.57347,-49.33253,667489.446415668,7170498.01129303
BATEU Local,1012,10/01/2011,21:00,Rua Atilio Borio,Avenida Presidente Affonso Camargo,Rua Atilio Borio X Avenida Presidente Affonso Camargo,660,Chuva Fraca,COLISAO FRONTAL,BICICLETA,SEM VÍTIMAS,Sem Ferimentos,CONDUTOR,05 - Entre 41 e 50 anos,Não Embriagado,Não realizou teste etilométrico,1,1,0,Rua Atilio Borio 660,-25.4294128,-49.2527857,675710.480931781,7186351.96038734
BATEU Local,1011,05/01/2011,11:00,Rua Professor Joao Poeck,Rua Moyses Gutztein,Rua Professor Joao Poeck X Rua Moyses Gutztein,465,Nublado,ABALROAMENTO TRANSVERSAL,BICICLETA,COM VÍTIMAS,Sem Ferimentos,CONDUTOR,05 - Entre 41 e 50 anos,Não Embriagado,Não realizou teste etilométrico,1,1,0,Rua Professor Joao Poeck 465,-25.5470892,-49.2704539,673763.941669248,7173340.3541569
BATEU Local,832,08/07/2011,07:00,Rua Anna Z. Homann,Rua Albino Homann,Rua Anna Z. Homann X Rua Albino Homann,0,Neblina,ABALROAMENTO TRANSVERSAL,BICICLETA,COM VÍTIMAS,Ferimento,CONDUTOR,02 - Entre 12 e 17 anos,Sem Info.,Sem Info.,1,1,1,Rua Anna Z. Homann X Rua Albino Homann,-25.4201,-49.35826,665114.133133295,7187518.24738185
BATEU Local,523,14/01/2011,23:00,Rua Doutor Bley Zornig,Rua Das Carmelitas,Rua Doutor Bley Zornig X Rua Das Carmelitas,0,Nublado,ACIDENTE COMPLEXO,BICICLETA,COM VÍTIMAS,Ferimento,CONDUTOR,04 - Entre 30 e 40 anos,Não Embriagado,Não realizou teste etilométrico,1,1,1,Rua Doutor Bley Zornig X Rua Das Carmelitas,-25.5118,-49.22573,678310.343008236,7177190.06294092
BATEU Local,381,15/02/2011,07:00,Rua Julio Maito Sobrinho,Rua Henrique Mehl,Rua Julio Maito Sobrinho X Rua Henrique Mehl,0,Nublado,ABALROAMENTO TRANSVERSAL,BICICLETA,COM VÍTIMAS,Sem Ferimentos,CONDUTOR,04 - Entre 30 e 40 anos,Não Embriagado,Não realizou teste etilométrico,1,1,0,Rua Julio Maito Sobrinho X Rua Henrique Mehl,-25.48293,-49.21832,679098.005249847,7180378.03389042
BATEU Local,380,13/02/2011,03:00,Rua Tapajos,Rua Desembargador Vieira Cavalcanti,Rua Tapajos X Rua Desembargador Vieira Cavalcanti,0,Bom,ABALROAMENTO LATERAL,BICICLETA,SEM VÍTIMAS,Não informado,ENVOLVIDO,08 - Não informada,Sem Info.,Sem Info.,1,1,0,Rua Tapajos X Rua Desembargador Vieira Cavalcanti,-25.42172,-49.28172,672811.087563748,7187241.87134908
BATEU Local,378,12/02/2011,19:00,Rua Paulo Rio Branco De Macedo,Rua Desembargador Joao Jose Arruda Junior,Rua Paulo Rio Branco De Macedo X Rua Desembargador Joao Jose Arruda Junior,0,Nublado,ABALROAMENTO TRANSVERSAL,BICICLETA,COM VÍTIMAS,Sem Ferimentos,CONDUTOR,05 - Entre 41 e 50 anos,Não Embriagado,Não realizou teste etilométrico,1,1,0,Rua Paulo Rio Branco De Macedo X Rua Desembargador Joao Jose Arruda Junior,-25.54979,-49.26546,674261.858197723,7173034.64535756
BATEU Local,245,13/02/2011,20:00,Rua Professor Rodolfo Belz,Rua Jose Antonio Leprevost,Rua Professor Rodolfo Belz X Rua Jose Antonio Leprevost,0,Nublado,ABALROAMENTO TRANSVERSAL,BICICLETA,COM VÍTIMAS,Sem Ferimentos,CONDUTOR,06 - Entre 51 e 59 anos,Não Embriagado,Não realizou teste etilométrico,1,1,0,Rua Professor Rodolfo Belz X Rua Jose Antonio Leprevost,-25.37196,-49.23754,677327.984106536,7192695.71351333
BATEU Local,238,09/02/2011,19:00,Rua Luiz Leao,Avenida Joao Gualberto,Rua Luiz Leao X Avenida Joao Gualberto,0,Nublado,ABALROAMENTO LATERAL,BICICLETA,COM VÍTIMAS,Ferimento,CONDUTOR,04 - Entre 30 e 40 anos,Sem Info.,Sem Info.,1,1,1,Rua Luiz Leao X Avenida Joao Gualberto,-25.42357,-49.26778,674210.67324479,7187018.8211016
BATEU Local,114,29/01/2011,16:00,Rua Paulo J Buso,Avenida Doutor Eugenio Bertolli,Rua Paulo J Buso X Avenida Doutor Eugenio Bertolli,0,Bom,COLISAO FRONTAL,BICICLETA,SEM VÍTIMAS,Sem Ferimentos,CONDUTOR,06 - Entre 51 e 59 anos,Não Embriagado,Não realizou teste etilométrico,1,1,0,Rua Paulo J Buso X Avenida Doutor Eugenio Bertolli,-25.37707,-49.33486,667527.379585581,7192255.27005524
BATEU Secretaria,20272,27/10/2011,22:00,Rua Brasilio Itibere,Rua Bento Viana,Rua Brasilio Itibere X Rua Bento Viana,0,Não Informado,ABALROAMENTO LATERAL,BICICLETA,COM VÍTIMAS,Ferimento,CONDUTOR,03 - Entre 18 e 29 anos,Sem Info.,Sem Info.,1,1,1,Rua Brasilio Itibere X Rua Bento Viana,-25.45173,-49.28121,672819.545612132,7183917.0993388
BATEU Secretaria,12240,26/10/2011,17:00,Rua Padre Victor Dewor,Rua Casemiro Augusto Rodacki,Rua Padre Victor Dewor X Rua Casemiro Augusto Rodacki,0,Não Informado,ATROPELAMENTO,BICICLETA,COM VÍTIMAS,Ferimento,CONDUTOR,02 - Entre 12 e 17 anos,Sem Info.,Sem Info.,1,1,1,Rua Padre Victor Dewor X Rua Casemiro Augusto Rodacki,-25.43942,-49.35933,664980.181408291,7185379.61305404
BATEU Secretaria,10296,29/12/2011,19:00,Rua Orlando Luis Lamarca,Rua Eugenia Maria Baptista,Rua Orlando Luis Lamarca X Rua Eugenia Maria Baptista,0,Não Informado,ABALROAMENTO TRANSVERSAL,BICICLETA,SEM VÍTIMAS,Sem Ferimentos,CONDUTOR,08 - Não informada,Sem Info.,Sem Info.,1,1,0,Rua Orlando Luis Lamarca X Rua Eugenia Maria Baptista,-25.50269,-49.32264,668582.006600985,7178325.55395
BATEU Local,78401,19/12/2012,11:00,Rua Pedro Violani,Rua Engenheiro Costa Barros,Rua Pedro Violani X Rua Engenheiro Costa Barros,1621,Bom,ABALROAMENTO TRANSVERSAL,BICICLETA,COM VÍTIMAS,Ferimento,CONDUTOR,05 - Entre 41 e 50 anos,Não Embriagado,Não realizou teste etilométrico,1,1,1,Rua Pedro Violani 1621,-25.4579703,-49.2007009,680906.830597878,7183119.00147721
BATEU Local,78371,28/12/2012,22:00,Rua Emanoel Voluz,Alameda Nossa Senhora Do Sagrado Coracao,Rua Emanoel Voluz X Alameda Nossa Senhora Do Sagrado Coracao,865,Nublado,ABALROAMENTO LATERAL,BICICLETA,SEM VÍTIMAS,Sem Ferimentos,CONDUTOR,08 - Não informada,Sem Info.,Sem Info.,1,1,0,Rua Emanoel Voluz 865,-25.52798,-49.2894,671887.357926173,7175481.69529889
BATEU Local,66501,24/12/2012,14:00,Rua Joao Tobias De Paiva Netto,Rua Fernando Zibarth,Rua Joao Tobias De Paiva Netto X Rua Fernando Zibarth,0,Bom,ABALROAMENTO TRANSVERSAL,BICICLETA,COM VÍTIMAS,Ferimento,CONDUTOR,01 - Entre  0 e 11 anos,Sem Info.,Sem Info.,1,1,1,Rua Joao Tobias De Paiva Netto X Rua Fernando Zibarth,-25.47216,-49.19462,681497.048590694,7181538.9305997
BATEU Local,58471,29/11/2012,07:00,Rua Sao Joao,Rua Brasilio Bacellar Filho,Rua Sao Joao X Rua Brasilio Bacellar Filho,0,Bom,ABALROAMENTO TRANSVERSAL,BICICLETA,COM VÍTIMAS,Ferimento,CONDUTOR,03 - Entre 18 e 29 anos,Sem Info.,Sem Info.,1,1,1,Rua Sao Joao X Rua Brasilio Bacellar Filho,-25.38095,-49.22638,678437.848105596,7191685.0543505
BATEU Local,58412,21/11/2012,07:00,Rua Pedro Breda,Rua Joao Azolin,Rua Pedro Breda X Rua Joao Azolin,0,Bom,ABALROAMENTO TRANSVERSAL,BICICLETA,COM VÍTIMAS,Ferimento,NAOIDENTIFICADO,08 - Não informada,Sem Info.,Sem Info.,1,1,1,Rua Pedro Breda X Rua Joao Azolin,-25.41127,-49.32536,668435.838853448,7188455.17686945
BATEU Local,58333,24/11/2012,17:00,Rua Edith Barcelos Schramm,Avenida Comendador Franco,Rua Edith Barcelos Schramm X Avenida Comendador Franco,0,Bom,ABALROAMENTO TRANSVERSAL,BICICLETA,SEM VÍTIMAS,Sem Ferimentos,NAOIDENTIFICADO,08 - Não informada,Sem Info.,Sem Info.,1,1,0,Rua Edith Barcelos Schramm X Avenida Comendador Franco,-25.44891,-49.24698,676266.060435369,7184184.63084834
BATEU Local,58316,07/11/2012,17:00,Rua Cacau,Rua Augusto Zibarth,Rua Cacau X Rua Augusto Zibarth,0,Bom,ABALROAMENTO TRANSVERSAL,BICICLETA,COM VÍTIMAS,Ferimento,CONDUTOR,08 - Não informada,Não Embriagado,Não realizou teste etilométrico,1,1,1,Rua Cacau X Rua Augusto Zibarth,-25.48816,-49.21397,679527.592623194,7179792.84644842
BATEU Local,58297,05/11/2012,22:00,Rua Sylvio Zeny,Avenida Republica Argentina,Rua Sylvio Zeny X Avenida Republica Argentina,0,Bom,ABALROAMENTO LATERAL,BICICLETA,COM VÍTIMAS,Ferimento,CONDUTOR,02 - Entre 12 e 17 anos,Não Embriagado,Não realizou teste etilométrico,1,1,1,Rua Sylvio Zeny X Avenida Republica Argentina,-25.46886,-49.29392,671517.054239509,7182036.08912252
BATEU Local,58170,25/11/2012,21:00,Rua Presidente Faria,Rua Presidente Carlos Cavalcanti,Rua Presidente Faria X Rua Presidente Carlos Cavalcanti,0,Bom,ABALROAMENTO TRANSVERSAL,BICICLETA,COM VÍTIMAS,Sem Ferimentos,RESPONSAVEL,03 - Entre 18 e 29 anos,Sem Info.,Sem Info.,1,1,0,Rua Presidente Faria X Rua Presidente Carlos Cavalcanti,-25.42643,-49.26862,674122.066232813,7186703.12398075
BATEU Local,58018,29/11/2012,19:00,Rua Luiz Carlos Dorecki,Rua Antonio Moreira Lopes,Rua Luiz Carlos Dorecki X Rua Antonio Moreira Lopes,0,Bom,NAO IDENTIFICADO,BICICLETA,COM VÍTIMAS,Ferimento,CONDUTOR,02 - Entre 12 e 17 anos,Sem Info.,Sem Info.,1,1,1,Rua Luiz Carlos Dorecki X Rua Antonio Moreira Lopes,-25.47404,-49.19166,681791.855877439,7181326.64367937
BATEU Local,54671,24/12/2012,21:00,Rua Alberico Flores Bueno,Avenida Da Integracao,Rua Alberico Flores Bueno X Avenida Da Integracao,0,Bom,ABALROAMENTO TRANSVERSAL,BICICLETA,COM VÍTIMAS,Ferimento,CONDUTOR,08 - Não informada,Não Embriagado,Não realizou teste etilométrico,1,1,1,Rua Alberico Flores Bueno X Avenida Da Integracao,-25.40559,-49.2044,680612.94689332,7188926.16506113
BATEU Local,54554,27/11/2012,13:00,Rua Nossa Senhora De Nazare,Rua Manoel De Souza Dias Negrao,Rua Nossa Senhora De Nazare X Rua Manoel De Souza Dias Negrao,0,Bom,ABALROAMENTO TRANSVERSAL,BICICLETA,COM VÍTIMAS,Ferimento,CONDUTOR,02 - Entre 12 e 17 anos,Sem Info.,Sem Info.,1,1,1,Rua Nossa Senhora De Nazare X Rua Manoel De Souza Dias Negrao,-25.39263,-49.24744,676301.678383573,7190419.25238341
BATEU Local,46943,18/12/2012,08:00,Rua Capitao Guilherme Bianchi,Avenida Florianopolis,Rua Capitao Guilherme Bianchi X Avenida Florianopolis,0,Bom,ABALROAMENTO LATERAL,BICICLETA,COM VÍTIMAS,Ferimento,CONDUTOR,07 - 60 ou mais,Não Embriagado,Não realizou teste etilométrico,1,1,1,Rua Capitao Guilherme Bianchi X Avenida Florianopolis,-25.45825,-49.21016,679955.171717644,7183100.8303476
BATEU Local,46846,13/12/2012,21:00,Rua Tailandia,Rua Engenheiro Benedito Mario Da Silva,Rua Tailandia X Rua Engenheiro Benedito Mario Da Silva,436,Bom,ABALROAMENTO LATERAL,BICICLETA,COM VÍTIMAS,Ferimento,CONDUTOR,03 - Entre 18 e 29 anos,Não Embriagado,Não realizou teste etilométrico,1,1,1,Rua Tailandia 436,-25.469,-49.20759,680197.598508312,7181906.57958686
BATEU Local,46708,16/12/2012,11:00,Avenida Silva Jardim,Avenida Republica Argentina,Avenida Silva Jardim X Avenida Republica Argentina,62,Bom,ABALROAMENTO LATERAL,BICICLETA,COM VÍTIMAS,Ferimento,CONDUTOR,05 - Entre 41 e 50 anos,Não Embriagado,Não realizou teste etilométrico,1,1,1,Avenida Silva Jardim 62,-25.4374535,-49.2615243,674819.892906807,7185472.79685548
BATEU Local,46648,05/12/2012,16:00,Rua Maestro Carlos Frank,Rua Das Carmelitas,Rua Maestro Carlos Frank X Rua Das Carmelitas,0,Bom,ACIDENTE COMPLEXO,BICICLETA,COM VÍTIMAS,Sem Ferimentos,CONDUTOR,04 - Entre 30 e 40 anos,Não Embriagado,Não realizou teste etilométrico,1,1,0,Rua Maestro Carlos Frank X Rua Das Carmelitas,-25.51548,-49.22389,678489.852062214,7176779.96053544
BATEU Local,46544,24/11/2012,22:00,Rua Paula Gomes,Rua Barao Do Serro Azul,Rua Paula Gomes X Rua Barao Do Serro Azul,410,Bom,ABALROAMENTO TRANSVERSAL,BICICLETA,COM VÍTIMAS,Ferimento,CONDUTOR,03 - Entre 18 e 29 anos,Não Embriagado,Não realizou teste etilométrico,1,1,1,Rua Paula Gomes 410,-25.4247589,-49.2736157,673621.955316882,7186894.73882176
BATEU Local,29405,30/11/2012,09:00,Rua Cleto Da Silva,Avenida Marechal Floriano Peixoto,Rua Cleto Da Silva X Avenida Marechal Floriano Peixoto,0,Nublado,ABALROAMENTO LATERAL,BICICLETA,COM VÍTIMAS,Ferimento,CONDUTOR,03 - Entre 18 e 29 anos,Não Embriagado,Não realizou teste etilométrico,1,1,1,Rua Cleto Da Silva X Avenida Marechal Floriano Peixoto,-25.48843,-49.24407,676501.0100946,7179803.20344295
BATEU Local,29346,10/11/2012,10:00,Rua Ulisses Aurelio Visinoni,Rua Maria Lucia Locher De Athayde,Rua Ulisses Aurelio Visinoni X Rua Maria Lucia Locher De Athayde,0,Bom,ABALROAMENTO TRANSVERSAL,BICICLETA,COM VÍTIMAS,Sem Ferimentos,RESPONSAVEL,04 - Entre 30 e 40 anos,Sem Info.,Sem Info.,1,1,0,Rua Ulisses Aurelio Visinoni X Rua Maria Lucia Locher De Athayde,-25.48783,-49.35478,665371.577552467,7180011.8651561
BATEU Local,29284,05/11/2012,16:00,Rua Minas Gerais,Avenida Presidente Kennedy,Rua Minas Gerais X Avenida Presidente Kennedy,0,Bom,NAO IDENTIFICADO,BICICLETA,COM VÍTIMAS,Ferimento,CONDUTOR,07 - 60 ou mais,Sem Info.,Sem Info.,1,1,1,Rua Minas Gerais X Avenida Presidente Kennedy,-25.46233,-49.27506,673422.830851475,7182734.97591555
BATEU Local,29270,04/11/2012,14:00,Rua Guabirotuba,Rua Esperandio Domingos Foggiatto,Rua Guabirotuba X Rua Esperandio Domingos Foggiatto,0,Bom,COLISAO FRONTAL,BICICLETA,COM VÍTIMAS,Ferimento,CONDUTOR,03 - Entre 18 e 29 anos,Sem Info.,Sem Info.,1,1,1,Rua Guabirotuba X Rua Esperandio Domingos Foggiatto,-25.44736,-49.24991,675973.64499423,7184360.19350032
BATEU Local,29199,26/10/2012,21:00,Rua Sao Jose Dos Pinhais,Rua Lupionopolis,Rua Sao Jose Dos Pinhais X Rua Lupionopolis,1765,Nublado,COLISAO FRONTAL,BICICLETA,COM VÍTIMAS,Não informado,RESPONSAVEL,06 - Entre 51 e 59 anos,Sem Info.,Sem Info.,1,1,0,Rua Sao Jose Dos Pinhais 1765,-25.5457453,-49.2576607,675051.450628559,7173472.41447124
BATEU Local,29188,25/10/2012,17:00,Rua Santa Lucia,-,Rua Santa Lucia X ,515,Nublado,ABALROAMENTO TRANSVERSAL,BICICLETA,COM VÍTIMAS,Ferimento,CONDUTOR,01 - Entre  0 e 11 anos,Não Embriagado,Não realizou teste etilométrico,1,1,1,Rua Santa Lucia 515,-25.4046566,-49.3466011,666308.094695731,7189214.34146763
BATEU Local,29060,01/11/2012,15:00,Rua Doutor Julio Cesar Ribeiro De Souza,Rua Bom Jesus De Iguape,Rua Doutor Julio Cesar Ribeiro De Souza X Rua Bom Jesus De Iguape,0,Bom,NAO IDENTIFICADO,BICICLETA,COM VÍTIMAS,Sem Ferimentos,RESPONSAVEL,06 - Entre 51 e 59 anos,Sem Info.,Sem Info.,1,1,0,Rua Doutor Julio Cesar Ribeiro De Souza X Rua Bom Jesus De Iguape,-25.47899,-49.24594,676326.78345355,7180851.33926747
BATEU Local,29010,12/10/2012,19:00,Rua Professor Rubens Elke Braga,Rua Brigadeiro Franco,Rua Professor Rubens Elke Braga X Rua Brigadeiro Franco,4880,Chuva Fraca,ABALROAMENTO TRANSVERSAL,BICICLETA,COM VÍTIMAS,Ferimento,CONDUTOR,08 - Não informada,Sem Info.,Sem Info.,1,1,1,Rua Professor Rubens Elke Braga 4880,-25.4609099,-49.26462,674474.704495401,7182878.64393309
BATEU Local,26444,09/10/2012,18:00,Rua Leonardo Pianowski,Rua Fatima Bark,Rua Leonardo Pianowski X Rua Fatima Bark,0,Bom,ABALROAMENTO TRANSVERSAL,BICICLETA,COM VÍTIMAS,Ferimento,CONDUTOR,01 - Entre  0 e 11 anos,Sem Info.,Sem Info.,1,1,1,Rua Leonardo Pianowski X Rua Fatima Bark,-25.52328,-49.30244,670583.455919133,7176019.10401841
BATEU Local,26408,01/10/2012,18:00,Rua Ivatuba,Rua Guacui,Rua Ivatuba X Rua Guacui,0,Chuva Fraca,ABALROAMENTO TRANSVERSAL,BICICLETA,COM VÍTIMAS,Ferimento,CONDUTOR,03 - Entre 18 e 29 anos,Não Embriagado,Não realizou teste etilométrico,1,1,1,Rua Ivatuba X Rua Guacui,-25.55093,-49.25471,675340.416045735,7172894.21603835
BATEU Local,26398,07/11/2012,20:00,Travessa Laudemeri Rodrigues Apolonio,Rua Operario Santo Dias,Travessa Laudemeri Rodrigues Apolonio X Rua Operario Santo Dias,5501,Bom,ABALROAMENTO TRANSVERSAL,BICICLETA,COM VÍTIMAS,Ferimento,CONDUTOR,01 - Entre  0 e 11 anos,Não Embriagado,Não realizou teste etilométrico,1,1,1,Travessa Laudemeri Rodrigues Apolonio 5501,-25.5351399,-49.25096,675740.262992374,7174638.3178166
BATEU Local,26331,25/10/2012,08:00,Rua Sebastiao Marcos Luiz,Rua Aracaju,Rua Sebastiao Marcos Luiz X Rua Aracaju,0,Nublado,NAO IDENTIFICADO,BICICLETA,COM VÍTIMAS,Sem Ferimentos,RESPONSAVEL,05 - Entre 41 e 50 anos,Sem Info.,Sem Info.,1,1,0,Rua Sebastiao Marcos Luiz X Rua Aracaju,-25.46327,-49.20951,680013.065207533,7182543.88770938
BATEU Local,26316,22/09/2012,14:00,Rua Pedro Wieler,Rua Leoncio Lopes Cortiano,Rua Pedro Wieler X Rua Leoncio Lopes Cortiano,0,Bom,COLISAO TRASEIRA,BICICLETA,COM VÍTIMAS,Não informado,RESPONSAVEL,03 - Entre 18 e 29 anos,Sem Info.,Sem Info.,1,1,0,Rua Pedro Wieler X Rua Leoncio Lopes Cortiano,-25.50756,-49.26686,674182.178005119,7177714.23907978
BATEU Local,26192,27/09/2012,14:00,Rua Maria Trevisan Tortato,Rua Capitao Ernesto Dos Anjos Barbosa,Rua Maria Trevisan Tortato X Rua Capitao Ernesto Dos Anjos Barbosa,0,Nublado,ABALROAMENTO TRANSVERSAL,BICICLETA,COM VÍTIMAS,Ferimento,CONDUTOR,07 - 60 ou mais,Não Embriagado,Não realizou teste etilométrico,1,1,1,Rua Maria Trevisan Tortato X Rua Capitao Ernesto Dos Anjos Barbosa,-25.49269,-49.28727,672151.768121258,7179387.92618233
BATEU Local,26184,27/10/2012,17:00,Rua Desembargador Manoel De Lacerda Pinto,Avenida Francisco M. Albizu,Rua Desembargador Manoel De Lacerda Pinto X Avenida Francisco M. Albizu,0,Bom,COLISAO FRONTAL,BICICLETA,COM VÍTIMAS,Ferimento,CONDUTOR,05 - Entre 41 e 50 anos,Sem Info.,Sem Info.,1,1,1,Rua Desembargador Manoel De Lacerda Pinto X Avenida Francisco M. Albizu,-25.39885,-49.2198,679073.551558845,7189693.49439264
BATEU Local,26127,18/09/2012,18:00,Rua Lodovico Kaminski,Rua Egon Cesar Fabri,Rua Lodovico Kaminski X Rua Egon Cesar Fabri,0,Bom,ABALROAMENTO TRANSVERSAL,BICICLETA,COM VÍTIMAS,Ferimento,CONDUTOR,03 - Entre 18 e 29 anos,Não Embriagado,Não realizou teste etilométrico,1,1,1,Rua Lodovico Kaminski X Rua Egon Cesar Fabri,-25.47563,-49.35902,664961.969488679,7181368.45512462
BATEU Local,26123,02/09/2012,11:00,Rua Jeronimo Durski,Alameda Julia Da Costa,Rua Jeronimo Durski X Alameda Julia Da Costa,0,Bom,ABALROAMENTO TRANSVERSAL,BICICLETA,COM VÍTIMAS,Ferimento,CONDUTOR,05 - Entre 41 e 50 anos,Não Embriagado,Não realizou teste etilométrico,1,1,1,Rua Jeronimo Durski X Alameda Julia Da Costa,-25.4372,-49.30368,670580.305663404,7185555.48064061
BATEU Local,26052,06/09/2012,20:00,Rua Simao Brante,Rua Joel Pedrini,Rua Simao Brante X Rua Joel Pedrini,1161,Bom,ABALROAMENTO TRANSVERSAL,BICICLETA,COM VÍTIMAS,Sem Ferimentos,RESPONSAVEL,05 - Entre 41 e 50 anos,Sem Info.,Sem Info.,1,1,0,Rua Simao Brante 1161,-25.4881827,-49.2265267,678265.132254676,7179807.21230257
BATEU Local,26025,10/09/2012,19:00,Rua Leon Tolstoi,Rua Duarte Da Costa,Rua Leon Tolstoi X Rua Duarte Da Costa,0,Chuva Fraca,ABALROAMENTO TRANSVERSAL,BICICLETA,COM VÍTIMAS,Ferimento,CONDUTOR,08 - Não informada,Sem Info.,Sem Info.,1,1,1,Rua Leon Tolstoi X Rua Duarte Da Costa,-25.47658,-49.26997,673914.168490374,7181149.9003185
BATEU Local,24845,31/10/2012,13:00,Rua Djalma Ferreira Maciel,Rua Capitao Joao Zaleski,Rua Djalma Ferreira Maciel X Rua Capitao Joao Zaleski,0,Bom,ABALROAMENTO TRANSVERSAL,BICICLETA,COM VÍTIMAS,Ferimento,NAOIDENTIFICADO,08 - Não informada,Sem Info.,Sem Info.,1,1,1,Rua Djalma Ferreira Maciel X Rua Capitao Joao Zaleski,-25.47825,-49.28201,672701.209736594,7180980.59192047
BATEU Local,24782,20/12/2012,12:00,Rua Alferes Angelo Sampaio,Avenida Iguacu,Rua Alferes Angelo Sampaio X Avenida Iguacu,0,Bom,ABALROAMENTO TRANSVERSAL,BICICLETA,COM VÍTIMAS,Ferimento,CONDUTOR,08 - Não informada,Sem Info.,Sem Info.,1,1,1,Rua Alferes Angelo Sampaio X Avenida Iguacu,-25.44666,-49.28101,672846.901196242,7184478.42845885
BATEU Local,24654,15/09/2012,20:00,Rua Jose Loureiro,Rua Desembargador Westphalen,Rua Jose Loureiro X Rua Desembargador Westphalen,0,Bom,COLISAO FRONTAL,BICICLETA,COM VÍTIMAS,Ferimento,CONDUTOR,08 - Não informada,Não Embriagado,Não realizou teste etilométrico,1,1,1,Rua Jose Loureiro X Rua Desembargador Westphalen,-25.43363,-49.2724,673731.515240757,7185910.53066904
BATEU Local,24486,03/09/2012,22:00,Rua Ursulina Visinoni,Rua Desembargador Cid Campelo,Rua Ursulina Visinoni X Rua Desembargador Cid Campelo,0,Chuva Fraca,COLISAO FRONTAL,BICICLETA,COM VÍTIMAS,Ferimento,CONDUTOR,02 - Entre 12 e 17 anos,Não Embriagado,Não realizou teste etilométrico,1,1,1,Rua Ursulina Visinoni X Rua Desembargador Cid Campelo,-25.51138,-49.33776,667050.080528299,7177382.0768443
BATEU Local,24456,28/09/2012,07:00,Rua Rio Tiete,Rua Rio Araguari,Rua Rio Tiete X Rua Rio Araguari,854,Nublado,ABALROAMENTO TRANSVERSAL,BICICLETA,SEM VÍTIMAS,Sem Ferimentos,CONDUTOR,08 - Não informada,Não Embriagado,Não realizou teste etilométrico,1,1,0,Rua Rio Tiete 854,-25.39624,-49.20462,680604.738898521,7189962.15461403
BATEU Local,24141,09/08/2012,23:00,Rua Rodolfo Bernardelli,Avenida Senador Salgado Filho,Rua Rodolfo Bernardelli X Avenida Senador Salgado Filho,0,Bom,ABALROAMENTO LATERAL,BICICLETA,COM VÍTIMAS,Ferimento,CONDUTOR,08 - Não informada,Não Embriagado,Não realizou teste etilométrico,1,1,1,Rua Rodolfo Bernardelli X Avenida Senador Salgado Filho,-25.48702,-49.22337,678584.219389764,7179931.77174999
BATEU Local,24070,04/08/2012,15:00,Rua Francisco Derosso,Rua Doutor Benedicto Siqueira Branco,Rua Francisco Derosso X Rua Doutor Benedicto Siqueira Branco,0,Bom,ABALROAMENTO LATERAL,BICICLETA,COM VÍTIMAS,Ferimento,CONDUTOR,08 - Não informada,Sem Info.,Sem Info.,1,1,1,Rua Francisco Derosso X Rua Doutor Benedicto Siqueira Branco,-25.53432,-49.23707,677137.386745354,7174710.69041226
BATEU Local,24010,08/10/2012,18:00,Rua Saturnino Miranda,Rua Jose Faustino Ferro,Rua Saturnino Miranda X Rua Jose Faustino Ferro,0,Bom,ABALROAMENTO TRANSVERSAL,BICICLETA,COM VÍTIMAS,Não informado,PASSAGEIRO,08 - Não informada,Sem Info.,Sem Info.,1,1,0,Rua Saturnino Miranda X Rua Jose Faustino Ferro,-25.39509,-49.3354,667448.173580844,7190259.97745443
BATEU Local,19948,19/07/2012,12:00,Rua Francisco Das Chagas Lopes,Rua Coronel Ary Pinho,Rua Francisco Das Chagas Lopes X Rua Coronel Ary Pinho,251,Bom,ABALROAMENTO TRANSVERSAL,BICICLETA,COM VÍTIMAS,Ferimento,CONDUTOR,01 - Entre  0 e 11 anos,Não Embriagado,Não realizou teste etilométrico,1,1,1,Rua Francisco Das Chagas Lopes 251,-25.38118,-49.2423,676835.534662487,7191680.74524691
BATEU Local,19771,01/07/2012,19:00,Rua Mariano Torres,Avenida Visconde De Guarapuava,Rua Mariano Torres X Avenida Visconde De Guarapuava,0,Bom,ABALROAMENTO TRANSVERSAL,BICICLETA,COM VÍTIMAS,Ferimento,PEDESTRE,05 - Entre 41 e 50 anos,Sem Info.,Sem Info.,1,1,1,Rua Mariano Torres X Avenida Visconde De Guarapuava,-25.43389,-49.26107,674870.732792569,7185866.92114069
BATEU Local,19739,29/05/2012,08:00,Rua Iapo,Rua Guabirotuba,Rua Iapo X Rua Guabirotuba,0,Bom,ABALROAMENTO LATERAL,BICICLETA,SEM VÍTIMAS,-,-,-,Sem Info.,Sem Info.,1,0,0,Rua Iapo X Rua Guabirotuba,-25.44824,-49.25436,675524.827613236,7184268.58586961
BATEU Local,19642,06/06/2012,18:00,Rua Lysimaco Ferreira Da Costa,Rua Euclides Bandeira,Rua Lysimaco Ferreira Da Costa X Rua Euclides Bandeira,0,Chuva Fraca,ABALROAMENTO TRANSVERSAL,BICICLETA,COM VÍTIMAS,Ferimento,CONDUTOR,08 - Não informada,Não Embriagado,Não realizou teste etilométrico,1,1,1,Rua Lysimaco Ferreira Da Costa X Rua Euclides Bandeira,-25.41716,-49.27057,673939.228961259,7187732.47804625
BATEU Local,19521,12/05/2012,16:00,Rua Paulo Engel,Rua Cid Marcondes De Albuquerque,Rua Paulo Engel X Rua Cid Marcondes De Albuquerque,0,Bom,ABALROAMENTO TRANSVERSAL,BICICLETA,COM VÍTIMAS,Ferimento,CONDUTOR,08 - Não informada,Sem Info.,Sem Info.,1,1,1,Rua Paulo Engel X Rua Cid Marcondes De Albuquerque,-25.52593,-49.26807,674034.044063437,7175681.00842198
BATEU Local,19491,24/05/2012,18:00,Rua Flavio Dallegrave,Rua Deputado Joaquim Jose Pedrosa,Rua Flavio Dallegrave X Rua Deputado Joaquim Jose Pedrosa,0,Chuva Forte,ABALROAMENTO TRANSVERSAL,BICICLETA,COM VÍTIMAS,Ferimento,CONDUTOR,03 - Entre 18 e 29 anos,Não Embriagado,Não realizou teste etilométrico,1,1,1,Rua Flavio Dallegrave X Rua Deputado Joaquim Jose Pedrosa,-25.40196,-49.24684,676348.481525001,7189384.99911471
BATEU Local,19486,07/08/2012,23:00,Rua Heitor Stockler De Franca,Rua Barao De Antonina,Rua Heitor Stockler De Franca X Rua Barao De Antonina,0,Nublado,ABALROAMENTO TRANSVERSAL,BICICLETA,COM VÍTIMAS,Sem Ferimentos,RESPONSAVEL,05 - Entre 41 e 50 anos,Sem Info.,Sem Info.,1,1,0,Rua Heitor Stockler De Franca X Rua Barao De Antonina,-25.42302,-49.26857,674131.997559343,7187080.7744824
BATEU Local,19482,30/07/2012,19:00,Rua Teffe,Avenida Desembargador Hugo Simas,Rua Teffe X Avenida Desembargador Hugo Simas,0,Bom,COLISAO TRASEIRA,BICICLETA,COM VÍTIMAS,Sem Ferimentos,RESPONSAVEL,04 - Entre 30 e 40 anos,Sem Info.,Sem Info.,1,1,0,Rua Teffe X Avenida Desembargador Hugo Simas,-25.41451,-49.2793,673064.816314159,7188037.36148302
BATEU Local,19464,07/05/2012,18:00,Rua Wilson Dacheux Pereira,-,Rua Wilson Dacheux Pereira X ,0,Nublado,ABALROAMENTO TRANSVERSAL,BICICLETA,COM VÍTIMAS,Ferimento,CONDUTOR,03 - Entre 18 e 29 anos,Não Embriagado,Não realizou teste etilométrico,1,1,1,Rua Wilson Dacheux Pereira X ,-25.52626,-49.2352,677337.175880547,7175601.000186
BATEU Local,19321,16/06/2012,07:00,Rua Rocha Pombo,Rua Barao De Guarauna,Rua Rocha Pombo X Rua Barao De Guarauna,0,Nublado,ABALROAMENTO TRANSVERSAL,BICICLETA,COM VÍTIMAS,Ferimento,CONDUTOR,04 - Entre 30 e 40 anos,Sem Info.,Sem Info.,1,1,1,Rua Rocha Pombo X Rua Barao De Guarauna,-25.41489,-49.25776,675231.142246621,7187967.15842323
BATEU Local,19293,22/05/2012,19:00,Rua Professor Porthos Velozo,Rua Joao Fagundes Machado,Rua Professor Porthos Velozo X Rua Joao Fagundes Machado,0,Bom,ACIDENTE COMPLEXO,BICICLETA,COM VÍTIMAS,Sem Ferimentos,RESPONSAVEL,05 - Entre 41 e 50 anos,Sem Info.,Sem Info.,1,1,0,Rua Professor Porthos Velozo X Rua Joao Fagundes Machado,-25.46704,-49.2655,674377.371803574,7182200.77889701
BATEU Local,19163,31/08/2012,11:00,Travessa Da Lapa,Rua Jose Loureiro,Travessa Da Lapa X Rua Jose Loureiro,0,Bom,ABALROAMENTO TRANSVERSAL,BICICLETA,SEM VÍTIMAS,Sem Ferimentos,CONDUTOR,08 - Não informada,Não Embriagado,Não realizou teste etilométrico,1,1,0,Travessa Da Lapa X Rua Jose Loureiro,-25.43168,-49.26717,674260.3643453,7186119.70247019
BATEU Local,18935,28/05/2012,18:00,Rua Teodoro Czyr,Rua Camara Junior,Rua Teodoro Czyr X Rua Camara Junior,0,Bom,ABALROAMENTO TRANSVERSAL,BICICLETA,COM VÍTIMAS,Ferimento,CONDUTOR,03 - Entre 18 e 29 anos,Sem Info.,Sem Info.,1,1,1,Rua Teodoro Czyr X Rua Camara Junior,-25.46367,-49.22194,678762.52553657,7182516.32066382
BATEU Local,18762,11/05/2012,18:00,Rua Alferes Poli,Avenida Sete De Setembro,Rua Alferes Poli X Avenida Sete De Setembro,0,Chuva Fraca,ABALROAMENTO TRANSVERSAL,BICICLETA,COM VÍTIMAS,Ferimento,CONDUTOR,03 - Entre 18 e 29 anos,Sem Info.,Sem Info.,1,1,1,Rua Alferes Poli X Avenida Sete De Setembro,-25.43977,-49.272,673762.93519403,7185229.89930453
BATEU Local,18699,21/08/2012,19:00,Rua Jovenilson Americo De Oliveira,Rua Ernesto Germano Francisco Hannemann,Rua Jovenilson Americo De Oliveira X Rua Ernesto Germano Francisco Hannemann,0,Bom,ABALROAMENTO TRANSVERSAL,BICICLETA,COM VÍTIMAS,Ferimento,CONDUTOR,03 - Entre 18 e 29 anos,Não Embriagado,Não realizou teste etilométrico,1,1,1,Rua Jovenilson Americo De Oliveira X Rua Ernesto Germano Francisco Hannemann,-25.55934,-49.33113,667649.774384637,7172061.37751663
BATEU Local,18670,27/05/2012,18:00,Rua Jose Maria Pinheiro Lima,Rua Joao Chaves,Rua Jose Maria Pinheiro Lima X Rua Joao Chaves,0,Bom,ABALROAMENTO TRANSVERSAL,BICICLETA,COM VÍTIMAS,Ferimento,CONDUTOR,08 - Não informada,Sem Info.,Sem Info.,1,1,1,Rua Jose Maria Pinheiro Lima X Rua Joao Chaves,-25.50453,-49.27749,673117.994780314,7178063.74612737
BATEU Local,18659,11/06/2012,07:00,Rua Desembargador Cid Campelo,Rua Angelina Turesso Cavalim,Rua Desembargador Cid Campelo X Rua Angelina Turesso Cavalim,0,Nublado,NAO IDENTIFICADO,BICICLETA,COM VÍTIMAS,Ferimento,CONDUTOR,08 - Não informada,Não Embriagado,Não realizou teste etilométrico,1,1,1,Rua Desembargador Cid Campelo X Rua Angelina Turesso Cavalim,-25.51604,-49.3273,668094.974853843,7176852.72429034
BATEU Local,18650,13/06/2012,13:00,Rua Bartolomeu Lourenco De Gusmao,Rua Antonio Schiebel,Rua Bartolomeu Lourenco De Gusmao X Rua Antonio Schiebel,3250,Bom,ABALROAMENTO TRANSVERSAL,BICICLETA,COM VÍTIMAS,Não informado,RESPONSAVEL,08 - Não informada,Sem Info.,Sem Info.,1,1,0,Rua Bartolomeu Lourenco De Gusmao 3250,-25.4978241,-49.2339007,677509.593822188,7178749.09846237
BATEU Local,18649,12/06/2012,15:00,Rua Engenheiro Costa Barros,Rua Dos Ferroviarios,Rua Engenheiro Costa Barros X Rua Dos Ferroviarios,590,Bom,ABALROAMENTO TRANSVERSAL,BICICLETA,COM VÍTIMAS,Ferimento,PEDESTRE,01 - Entre  0 e 11 anos,Sem Info.,Sem Info.,1,1,1,Rua Engenheiro Costa Barros 590,-25.451724,-49.2151611,679461.92645643,7183830.45830334
BATEU Local,18623,28/06/2012,14:00,Rua Xanxere,Rua Anjo De Luz,Rua Xanxere X Rua Anjo De Luz,153,Bom,ABALROAMENTO TRANSVERSAL,BICICLETA,COM VÍTIMAS,Ferimento,CONDUTOR,02 - Entre 12 e 17 anos,Não Embriagado,Não realizou teste etilométrico,1,1,1,Rua Xanxere 153,-25.46266,-49.34441,666448.775978257,7182786.89478062
BATEU Local,18602,08/06/2012,22:00,Rua Santo Andre,Avenida Prefeito Mauricio Fruet,Rua Santo Andre X Avenida Prefeito Mauricio Fruet,0,Nublado,ABALROAMENTO TRANSVERSAL,BICICLETA,COM VÍTIMAS,Ferimento,CONDUTOR,04 - Entre 30 e 40 anos,Sem Info.,Sem Info.,1,1,1,Rua Santo Andre X Avenida Prefeito Mauricio Fruet,-25.44221,-49.23216,677766.351393,7184907.09695411
BATEU Local,18567,20/07/2012,18:00,Rua Joao Palomeque,Avenida Republica Argentina,Rua Joao Palomeque X Avenida Republica Argentina,0,Bom,ABALROAMENTO TRANSVERSAL,BICICLETA,COM VÍTIMAS,Ferimento,CONDUTOR,08 - Não informada,Não Embriagado,Não realizou teste etilométrico,1,1,1,Rua Joao Palomeque X Avenida Republica Argentina,-25.48225,-49.29281,671609.652536466,7180551.49036436
BATEU Local,18507,06/09/2012,20:00,Rua Thereza Thomazzi,Rua Gloria Senna,Rua Thereza Thomazzi X Rua Gloria Senna,0,Bom,ABALROAMENTO TRANSVERSAL,BICICLETA,COM VÍTIMAS,Ferimento,CONDUTOR,03 - Entre 18 e 29 anos,Não Embriagado,Não realizou teste etilométrico,1,1,1,Rua Thereza Thomazzi X Rua Gloria Senna,-25.54593,-49.2827,672535.027477999,7173484.72437962
BATEU Local,18499,24/07/2012,18:00,Rua Oliveira Viana,Rua Coronel Luiz Jose Dos Santos,Rua Oliveira Viana X Rua Coronel Luiz Jose Dos Santos,0,Bom,ABALROAMENTO TRANSVERSAL,BICICLETA,COM VÍTIMAS,Ferimento,CONDUTOR,08 - Não informada,Não Embriagado,Não realizou teste etilométrico,1,1,1,Rua Oliveira Viana X Rua Coronel Luiz Jose Dos Santos,-25.4985,-49.24731,676160.579318491,7178692.05469871
BATEU Local,18494,21/05/2012,18:00,Rua Luiz Machuca,Rua Jaguapita,Rua Luiz Machuca X Rua Jaguapita,151,Bom,COLISAO FRONTAL,BICICLETA,COM VÍTIMAS,Não informado,RESPONSAVEL,05 - Entre 41 e 50 anos,Sem Info.,Sem Info.,1,1,0,Rua Luiz Machuca 151,-25.5339146,-49.2345623,677390.004906071,7174752.25050273
BATEU Local,18463,28/09/2012,09:00,Rua Visconde De Nacar,Avenida Vicente Machado,Rua Visconde De Nacar X Avenida Vicente Machado,1226,Bom,ABALROAMENTO TRANSVERSAL,BICICLETA,COM VÍTIMAS,Sem Ferimentos,CONDUTOR,03 - Entre 18 e 29 anos,Sem Info.,Sem Info.,1,1,0,Rua Visconde De Nacar 1226,-25.43322,-49.27763,673206.059786765,7185962.74877099
BATEU Local,18417,03/05/2012,07:00,Rua Waldemar Kost,Rua Isaias Regis De Miranda,Rua Waldemar Kost X Rua Isaias Regis De Miranda,0,Nublado,ABALROAMENTO TRANSVERSAL,BICICLETA,COM VÍTIMAS,Ferimento,CONDUTOR,05 - Entre 41 e 50 anos,Sem Info.,Sem Info.,1,1,1,Rua Waldemar Kost X Rua Isaias Regis De Miranda,-25.48466,-49.25122,675787.657222458,7180230.26487322
BATEU Local,18360,19/06/2012,07:00,Rua Marmelo,Rua Augusto Steembock,Rua Marmelo X Rua Augusto Steembock,0,Nublado,ACIDENTE COMPLEXO,BICICLETA,COM VÍTIMAS,Ferimento,CONDUTOR,03 - Entre 18 e 29 anos,Não Embriagado,Não realizou teste etilométrico,1,1,1,Rua Marmelo X Rua Augusto Steembock,-25.47971,-49.21352,679585.395922342,7180728.24556023
BATEU Local,18330,18/05/2012,16:00,Rua Professora Maria Da Gloria Saldanha Loyola,Rua Capitao Leonidas Marques,Rua Professora Maria Da Gloria Saldanha Loyola X Rua Capitao Leonidas Marques,801,Bom,ACIDENTE COMPLEXO,BICICLETA,COM VÍTIMAS,Ferimento,CONDUTOR,07 - 60 ou mais,Sem Info.,Sem Info.,1,1,1,Rua Professora Maria Da Gloria Saldanha Loyola 801,-25.4115,-49.25083,675933.20684712,7188333.54180582
BATEU Local,18267,19/04/2012,07:00,Rua Francisco Zanetti,Avenida Presidente Wenceslau Braz,Rua Francisco Zanetti X Avenida Presidente Wenceslau Braz,225,Nublado,ABALROAMENTO TRANSVERSAL,BICICLETA,COM VÍTIMAS,Não informado,RESPONSAVEL,03 - Entre 18 e 29 anos,Sem Info.,Sem Info.,1,1,0,Rua Francisco Zanetti 225,-25.4713891,-49.2612203,674801.424961007,7181713.42748332
BATEU Local,18262,09/08/2012,17:00,Rua Evaristo Da Veiga,Rua Das Carmelitas,Rua Evaristo Da Veiga X Rua Das Carmelitas,1168,Bom,ABALROAMENTO TRANSVERSAL,BICICLETA,COM VÍTIMAS,Ferimento,CONDUTOR,07 - 60 ou mais,Não Embriagado,Não realizou teste etilométrico,1,1,1,Rua Evaristo Da Veiga 1168,-25.4880824,-49.2488836,676017.571822391,7179848.08226383
BATEU Local,18211,18/04/2012,13:00,Rua Waldemar Loureiro Campos,Rua Doutor Domicio Costa,Rua Waldemar Loureiro Campos X Rua Doutor Domicio Costa,0,Bom,ABALROAMENTO TRANSVERSAL,BICICLETA,COM VÍTIMAS,Sem Ferimentos,RESPONSAVEL,07 - 60 ou mais,Sem Info.,Sem Info.,1,1,0,Rua Waldemar Loureiro Campos X Rua Doutor Domicio Costa,-25.51089,-49.25631,675237.83368945,7177331.51883803
BATEU Local,18186,09/05/2012,12:00,Rua Julio Pereira Sobrinho,Rua Felicidade Vitorina Suek,Rua Julio Pereira Sobrinho X Rua Felicidade Vitorina Suek,0,Bom,ABALROAMENTO TRANSVERSAL,BICICLETA,COM VÍTIMAS,Ferimento,CONDUTOR,01 - Entre  0 e 11 anos,Não Embriagado,Não realizou teste etilométrico,1,1,1,Rua Julio Pereira Sobrinho X Rua Felicidade Vitorina Suek,-25.58631,-49.32047,668683.028492061,7169060.47838496
BATEU Local,18157,14/08/2012,18:00,Rua Maria Visniesvski,Rua Albertino Goncalves Cordeiro,Rua Maria Visniesvski X Rua Albertino Goncalves Cordeiro,0,Bom,COLISAO FRONTAL,BICICLETA,COM VÍTIMAS,Ferimento,CONDUTOR,03 - Entre 18 e 29 anos,Não Embriagado,Não realizou teste etilométrico,1,1,1,Rua Maria Visniesvski X Rua Albertino Goncalves Cordeiro,-25.51747,-49.33005,667816.579657574,7176697.80290059
BATEU Local,18071,30/05/2012,17:00,Rua Pedro Gusso,Rua Jose Alcides De Lima,Rua Pedro Gusso X Rua Jose Alcides De Lima,0,Nublado,ABALROAMENTO TRANSVERSAL,BICICLETA,COM VÍTIMAS,Ferimento,CONDUTOR,04 - Entre 30 e 40 anos,Sem Info.,Sem Info.,1,1,1,Rua Pedro Gusso X Rua Jose Alcides De Lima,-25.498,-49.3065,670211.057485227,7178824.49528446
BATEU Local,18066,27/03/2012,12:00,Rua Ourizona,Rua Desembargador Joao Jose Arruda Junior,Rua Ourizona X Rua Desembargador Joao Jose Arruda Junior,996,Nublado,ABALROAMENTO TRANSVERSAL,BICICLETA,SEM VÍTIMAS,-,-,-,Sem Info.,Sem Info.,1,0,0,Rua Ourizona 996,-25.54901,-49.2672,674088.141376738,7173123.32752499
BATEU Local,17897,03/04/2012,18:00,Rua Filosofo Huberto Rohden,Rua Celeste Tortato Gabardo,Rua Filosofo Huberto Rohden X Rua Celeste Tortato Gabardo,0,Bom,ABALROAMENTO TRANSVERSAL,BICICLETA,COM VÍTIMAS,Ferimento,CONDUTOR,08 - Não informada,Sem Info.,Sem Info.,1,1,1,Rua Filosofo Huberto Rohden X Rua Celeste Tortato Gabardo,-25.54133,-49.27224,673592.759181401,7173980.62860957
BATEU Local,17888,16/03/2012,22:00,Rua Roberto Faria,Avenida Henry Ford,Rua Roberto Faria X Avenida Henry Ford,0,Bom,ABALROAMENTO TRANSVERSAL,BICICLETA,COM VÍTIMAS,Ferimento,CONDUTOR,08 - Não informada,Sem Info.,Sem Info.,1,1,1,Rua Roberto Faria X Avenida Henry Ford,-25.47269,-49.26299,674621.601109329,7181571.65139698
BATEU Local,17844,14/03/2012,12:00,Rua Urbano Lopes,Rua Guilherme Born,Rua Urbano Lopes X Rua Guilherme Born,0,Bom,ABALROAMENTO TRANSVERSAL,BICICLETA,COM VÍTIMAS,Sem Ferimentos,RESPONSAVEL,05 - Entre 41 e 50 anos,Sem Info.,Sem Info.,1,1,0,Rua Urbano Lopes X Rua Guilherme Born,-25.44118,-49.23518,677464.122345906,7185025.21255096
BATEU Local,17824,15/04/2012,14:00,Rua Pedro Airton Zimmermann,Rua Moyses Gutztein,Rua Pedro Airton Zimmermann X Rua Moyses Gutztein,0,Bom,ABALROAMENTO TRANSVERSAL,BICICLETA,COM VÍTIMAS,Sem Ferimentos,RESPONSAVEL,04 - Entre 30 e 40 anos,Sem Info.,Sem Info.,1,1,0,Rua Pedro Airton Zimmermann X Rua Moyses Gutztein,-25.54096,-49.26759,674060.581782032,7174015.5274301
BATEU Local,17810,04/10/2012,17:00,Rua Paulo Setubal,Rua Irma Flavia Borlet,Rua Paulo Setubal X Rua Irma Flavia Borlet,1207,Nublado,ABALROAMENTO TRANSVERSAL,BICICLETA,COM VÍTIMAS,Sem Ferimentos,RESPONSAVEL,06 - Entre 51 e 59 anos,Sem Info.,Sem Info.,1,1,0,Rua Paulo Setubal 1207,-25.48862,-49.25634,675267.147154632,7179798.37448804
BATEU Local,17781,13/04/2012,12:00,Rua Natal,Avenida Prefeito Mauricio Fruet,Rua Natal X Avenida Prefeito Mauricio Fruet,0,Bom,ABALROAMENTO TRANSVERSAL,BICICLETA,COM VÍTIMAS,Sem Ferimentos,RESPONSAVEL,05 - Entre 41 e 50 anos,Sem Info.,Sem Info.,1,1,0,Rua Natal X Avenida Prefeito Mauricio Fruet,-25.44385,-49.213,679690.958069607,7184699.74505358
BATEU Local,17778,17/03/2012,17:00,Rua Odenir Dissenha,Rua Ady R. C. Mendonca,Rua Odenir Dissenha X Rua Ady R. C. Mendonca,258,Bom,ABALROAMENTO TRANSVERSAL,BICICLETA,COM VÍTIMAS,Sem Ferimentos,RESPONSAVEL,05 - Entre 41 e 50 anos,Sem Info.,Sem Info.,1,1,0,Rua Odenir Dissenha 258,-25.4831443,-49.1980235,681138.35259949,7180326.82929632
BATEU Local,17726,09/07/2012,14:00,Rua Simao Brante,Rua Dona Barbara Cid,Rua Simao Brante X Rua Dona Barbara Cid,0,Bom,ABALROAMENTO TRANSVERSAL,BICICLETA,COM VÍTIMAS,Ferimento,CONDUTOR,03 - Entre 18 e 29 anos,Não Embriagado,Não realizou teste etilométrico,1,1,1,Rua Simao Brante X Rua Dona Barbara Cid,-25.49242,-49.22339,678574.224139592,7179333.64233898
BATEU Local,17716,22/09/2012,23:00,Rua Tenente Francisco Ferreira De Souza,Rua Evaristo Da Veiga,Rua Tenente Francisco Ferreira De Souza X Rua Evaristo Da Veiga,0,Bom,ABALROAMENTO TRANSVERSAL,BICICLETA,COM VÍTIMAS,Ferimento,CONDUTOR,08 - Não informada,Sem Info.,Sem Info.,1,1,1,Rua Tenente Francisco Ferreira De Souza X Rua Evaristo Da Veiga,-25.48692,-49.24598,676311.188466408,7179972.99621893
BATEU Local,17697,25/06/2012,19:00,Rua Yedo De Faria Pinto,Rua Isaias Ferreira Da Silva,Rua Yedo De Faria Pinto X Rua Isaias Ferreira Da Silva,0,Bom,ABALROAMENTO TRANSVERSAL,BICICLETA,COM VÍTIMAS,Ferimento,CONDUTOR,08 - Não informada,Sem Info.,Sem Info.,1,1,1,Rua Yedo De Faria Pinto X Rua Isaias Ferreira Da Silva,-25.47797,-49.19406,681544.6298955,7180894.58996056
BATEU Local,17650,28/06/2012,18:00,Rua Jose Hauer,Rua Anne Frank,Rua Jose Hauer X Rua Anne Frank,0,Bom,ABALROAMENTO TRANSVERSAL,BICICLETA,COM VÍTIMAS,Ferimento,CONDUTOR,02 - Entre 12 e 17 anos,Sem Info.,Sem Info.,1,1,1,Rua Jose Hauer X Rua Anne Frank,-25.50631,-49.2339,677497.185555096,7177809.11908389
BATEU Local,17528,16/06/2012,12:00,Rua Joao Stenzowski,Rua Estanislau Krowinski,Rua Joao Stenzowski X Rua Estanislau Krowinski,0,Bom,ABALROAMENTO TRANSVERSAL,BICICLETA,COM VÍTIMAS,Ferimento,CONDUTOR,08 - Não informada,Não Embriagado,Não realizou teste etilométrico,1,1,1,Rua Joao Stenzowski X Rua Estanislau Krowinski,-25.48401,-49.28557,672335.056621211,7180347.18608346
BATEU Local,17497,09/07/2012,13:00,Rua Pedro Dorigo,Rua Eurico Fonseca Dos Santos,Rua Pedro Dorigo X Rua Eurico Fonseca Dos Santos,297,Nublado,ABALROAMENTO TRANSVERSAL,BICICLETA,COM VÍTIMAS,Ferimento,CONDUTOR,02 - Entre 12 e 17 anos,Sem Info.,Sem Info.,1,1,1,Rua Pedro Dorigo 297,-25.561743,-49.3413552,666619.073370068,7171808.08101966
BATEU Local,17490,15/03/2012,11:00,Rua Sebastiao Marcos Luiz,Rua Natal,Rua Sebastiao Marcos Luiz X Rua Natal,1049,Chuva Fraca,ABALROAMENTO TRANSVERSAL,BICICLETA,COM VÍTIMAS,Sem Ferimentos,RESPONSAVEL,03 - Entre 18 e 29 anos,Sem Info.,Sem Info.,1,1,0,Rua Sebastiao Marcos Luiz 1049,-25.46226,-49.20626,680341.389145342,7182651.36902005
BATEU Local,17478,09/04/2012,12:00,Rua Felipe Camarao,Rua Chile,Rua Felipe Camarao X Rua Chile,0,Bom,ABALROAMENTO TRANSVERSAL,BICICLETA,COM VÍTIMAS,Ferimento,CONDUTOR,07 - 60 ou mais,Não Embriagado,Não realizou teste etilométrico,1,1,1,Rua Felipe Camarao X Rua Chile,-25.44572,-49.2532,675645.146779436,7184546.19287485
BATEU Local,17374,26/12/2012,11:00,Viaduto Colorado,Rua Brasilio Itibere,Viaduto Colorado X Rua Brasilio Itibere,0,Bom,ABALROAMENTO LATERAL,BICICLETA,COM VÍTIMAS,Ferimento,CONDUTOR,07 - 60 ou mais,Não Embriagado,Não realizou teste etilométrico,1,1,1,Viaduto Colorado X Rua Brasilio Itibere,-25.44125,-49.25379,675592.294220202,7185042.1027587
BATEU Local,17321,02/03/2012,21:00,Rua Niteroi,Rua Natal,Rua Niteroi X Rua Natal,1924,Nublado,ABALROAMENTO TRANSVERSAL,BICICLETA,COM VÍTIMAS,Sem Ferimentos,RESPONSAVEL,03 - Entre 18 e 29 anos,Sem Info.,Sem Info.,1,1,0,Rua Niteroi 1924,-25.45985,-49.2040099,680571.258230272,7182915.27643028
BATEU Local,17320,02/03/2012,18:00,Rua Professor Manoel De Abreu,Rua Itatiaia,Rua Professor Manoel De Abreu X Rua Itatiaia,282,Nublado,ABALROAMENTO TRANSVERSAL,BICICLETA,COM VÍTIMAS,Ferimento,CONDUTOR,08 - Não informada,Não Embriagado,Não realizou teste etilométrico,1,1,1,Rua Professor Manoel De Abreu 282,-25.47831,-49.30411,670479.1049274,7181002.43067932
BATEU Local,17293,23/03/2012,12:00,Rua Manoel Martins De Abreu,Rua Doutor Nelson Berno,Rua Manoel Martins De Abreu X Rua Doutor Nelson Berno,615,Bom,ABALROAMENTO TRANSVERSAL,BICICLETA,COM VÍTIMAS,Ferimento,CONDUTOR,01 - Entre  0 e 11 anos,Sem Info.,Sem Info.,1,1,1,Rua Manoel Martins De Abreu 615,-25.4478662,-49.2482075,676144.130415487,7184301.87363725
BATEU Local,17254,21/09/2012,18:00,Rua Vereador Elias Karam,Rua Arthur Martins Franco,Rua Vereador Elias Karam X Rua Arthur Martins Franco,0,Bom,ABALROAMENTO TRANSVERSAL,BICICLETA,COM VÍTIMAS,Ferimento,CONDUTOR,04 - Entre 30 e 40 anos,Sem Info.,Sem Info.,1,1,1,Rua Vereador Elias Karam X Rua Arthur Martins Franco,-25.4812,-49.33437,667432.66965372,7180720.72191388
BATEU Local,17242,26/06/2012,07:00,Rua Francisco Derosso,Rua Alcebiades Merlin,Rua Francisco Derosso X Rua Alcebiades Merlin,2499,Bom,ABALROAMENTO TRANSVERSAL,BICICLETA,COM VÍTIMAS,Ferimento,CONDUTOR,08 - Não informada,Não Embriagado,Não realizou teste etilométrico,1,1,1,Rua Francisco Derosso 2499,-25.51101,-49.26072,674794.376120183,7177324.0312043
BATEU Local,17235,13/03/2012,07:00,Rua Joquei Clube,Rua Francisco Nunes,Rua Joquei Clube X Rua Francisco Nunes,1241,Bom,ABALROAMENTO TRANSVERSAL,BICICLETA,COM VÍTIMAS,Ferimento,PEDESTRE,04 - Entre 30 e 40 anos,Sem Info.,Sem Info.,1,1,1,Rua Joquei Clube 1241,-25.45239,-49.25549,675405.166847919,7183810.38674213
BATEU Local,17202,25/05/2012,14:00,Rua Tijucas Do Sul,Rua Jussara,Rua Tijucas Do Sul X Rua Jussara,0,Nublado,ABALROAMENTO TRANSVERSAL,BICICLETA,COM VÍTIMAS,Ferimento,CONDUTOR,07 - 60 ou mais,Sem Info.,Sem Info.,1,1,1,Rua Tijucas Do Sul X Rua Jussara,-25.54755,-49.26083,674730.354052492,7173276.68346559
BATEU Local,17142,05/03/2012,06:00,Rua Nicola Pellanda,Rua Arapongas,Rua Nicola Pellanda X Rua Arapongas,0,Bom,ABALROAMENTO TRANSVERSAL,BICICLETA,COM VÍTIMAS,Sem Ferimentos,RESPONSAVEL,03 - Entre 18 e 29 anos,Sem Info.,Sem Info.,1,1,0,Rua Nicola Pellanda X Rua Arapongas,-25.54251,-49.29452,671352.127784548,7173878.85403013
BATEU Local,17139,24/02/2012,08:00,Rua Nicola Pellanda,Rua Ignez De Souza Soares,Rua Nicola Pellanda X Rua Ignez De Souza Soares,0,Nublado,ABALROAMENTO TRANSVERSAL,BICICLETA,COM VÍTIMAS,Ferimento,CONDUTOR,03 - Entre 18 e 29 anos,Não Embriagado,Não realizou teste etilométrico,1,1,1,Rua Nicola Pellanda X Rua Ignez De Souza Soares,-25.54967,-49.29301,671493.675612042,7173083.8071901
BATEU Local,16923,25/01/2012,07:00,Rua Nicola Pellanda,Rua Guilherme Scroccaro,Rua Nicola Pellanda X Rua Guilherme Scroccaro,2740,Bom,ABALROAMENTO LATERAL,BICICLETA,SEM VÍTIMAS,Não informado,NAOIDENTIFICADO,05 - Entre 41 e 50 anos,Sem Info.,Sem Info.,1,1,0,Rua Nicola Pellanda 2740,-25.55328,-49.29289,671500.593393356,7172683.77994808
BATEU Local,16919,25/01/2012,15:00,Rua Dos Pioneiros,Rua Da Lua,Rua Dos Pioneiros X Rua Da Lua,6,Nublado,ABALROAMENTO LATERAL,BICICLETA,COM VÍTIMAS,Ferimento,CONDUTOR,08 - Não informada,Não Embriagado,Não realizou teste etilométrico,1,1,1,Rua Dos Pioneiros 6,-25.53264,-49.26123,674711.774978645,7174928.7746995
BATEU Local,16902,30/05/2012,09:00,Rua Izaac Ferreira Da Cruz,Rua Filosofo Huberto Rohden,Rua Izaac Ferreira Da Cruz X Rua Filosofo Huberto Rohden,2600,Bom,ABALROAMENTO LATERAL,BICICLETA,COM VÍTIMAS,Ferimento,CONDUTOR,07 - 60 ou mais,Não Embriagado,Não realizou teste etilométrico,1,1,1,Rua Izaac Ferreira Da Cruz 2600,-25.53771,-49.2771,673109.568517308,7174387.95297501
BATEU Local,16880,02/02/2012,23:00,Avenida Republica Argentina,Avenida Presidente Arthur Da Silva Bernardes,Avenida Republica Argentina X Avenida Presidente Arthur Da Silva Bernardes,0,Bom,COLISAO TRASEIRA,BICICLETA,COM VÍTIMAS,Ferimento,CONDUTOR,07 - 60 ou mais,Sem Info.,Sem Info.,1,1,1,Avenida Republica Argentina X Avenida Presidente Arthur Da Silva Bernardes,-25.47087,-49.29448,671457.894445831,7181814.16905605
BATEU Local,16852,01/10/2012,09:00,Rua Jose Hauer,Rua Carlos De Laet,Rua Jose Hauer X Rua Carlos De Laet,0,Bom,ACIDENTE COMPLEXO,BICICLETA,COM VÍTIMAS,Ferimento,CONDUTOR,08 - Não informada,Sem Info.,Sem Info.,1,1,1,Rua Jose Hauer X Rua Carlos De Laet,-25.50539,-49.23164,677725.721309606,7177908.00877151
BATEU Local,16832,30/05/2012,17:00,Rua Professor Nivaldo Braga,Rua Antonio Meirelles Sobrinho,Rua Professor Nivaldo Braga X Rua Antonio Meirelles Sobrinho,0,Bom,ACIDENTE COMPLEXO,BICICLETA,COM VÍTIMAS,Ferimento,CONDUTOR,06 - Entre 51 e 59 anos,Sem Info.,Sem Info.,1,1,1,Rua Professor Nivaldo Braga X Rua Antonio Meirelles Sobrinho,-25.44433,-49.22298,678686.51007951,7184659.99246424
BATEU Local,16806,10/04/2012,07:00,Rua Joana Roncaglio Bertoldi,Rua Alda Bassetti  Bertholdi,Rua Joana Roncaglio Bertoldi X Rua Alda Bassetti  Bertholdi,1360,Nublado,ABALROAMENTO LATERAL,BICICLETA,COM VÍTIMAS,Ferimento,CONDUTOR,01 - Entre  0 e 11 anos,Não Embriagado,Não realizou teste etilométrico,1,1,1,Rua Joana Roncaglio Bertoldi 1360,-25.594335,-49.3362924,667082.475806824,7168191.6059863
BATEU Local,16788,24/04/2012,18:00,Rua Vale Dos Passaros,Rua Irineu Antonio Borges,Rua Vale Dos Passaros X Rua Irineu Antonio Borges,115,Nublado,ABALROAMENTO TRANSVERSAL,BICICLETA,COM VÍTIMAS,Ferimento,CONDUTOR,08 - Não informada,Não Embriagado,Não realizou teste etilométrico,1,1,1,Rua Vale Dos Passaros 115,-25.4906053,-49.3469388,666156.067218099,7179694.69207765
BATEU Local,16709,28/01/2012,16:00,Rua Doutor Bley Zornig,Rua Americo Firmino De Toledo,Rua Doutor Bley Zornig X Rua Americo Firmino De Toledo,0,Nublado,ABALROAMENTO TRANSVERSAL,BICICLETA,COM VÍTIMAS,Não informado,RESPONSAVEL,05 - Entre 41 e 50 anos,Sem Info.,Sem Info.,1,1,0,Rua Doutor Bley Zornig X Rua Americo Firmino De Toledo,-25.50353,-49.2161199,679288.620936632,7178093.20962318
BATEU Local,16684,13/01/2012,18:00,Rua Jose Hauer,Rua Canal Belem,Rua Jose Hauer X Rua Canal Belem,591,Nublado,ABALROAMENTO TRANSVERSAL,BICICLETA,COM VÍTIMAS,Ferimento,CONDUTOR,04 - Entre 30 e 40 anos,Não Embriagado,Não realizou teste etilométrico,1,1,1,Rua Jose Hauer 591,-25.50064,-49.22042,678860.634078963,7178419.12449744
BATEU Local,16586,06/01/2012,10:00,Rua Daisy Luci Berno,Rua 24 De Maio,Rua Daisy Luci Berno X Rua 24 De Maio,0,Bom,ABALROAMENTO TRANSVERSAL,BICICLETA,COM VÍTIMAS,Sem Ferimentos,RESPONSAVEL,03 - Entre 18 e 29 anos,Sem Info.,Sem Info.,1,1,0,Rua Daisy Luci Berno X Rua 24 De Maio,-25.46819,-49.25906,675023.276396182,7182064.94795753
BATEU Local,16543,13/02/2012,13:00,Rua Conde Dos Arcos,Rua Antero De Quental,Rua Conde Dos Arcos X Rua Antero De Quental,435,Bom,ABALROAMENTO TRANSVERSAL,BICICLETA,COM VÍTIMAS,Ferimento,CONDUTOR,03 - Entre 18 e 29 anos,Sem Info.,Sem Info.,1,1,1,Rua Conde Dos Arcos 435,-25.47885,-49.27424,673481.578305811,7180904.02884778
BATEU Local,16491,16/01/2012,18:00,Rua Velcy Bolivar Grando,-,Rua Velcy Bolivar Grando X ,0,Bom,COLISAO FRONTAL,BICICLETA,COM VÍTIMAS,Ferimento,CONDUTOR,08 - Não informada,Não Embriagado,Não realizou teste etilométrico,1,1,1,Rua Velcy Bolivar Grando X ,-25.49446,-49.20822,680096.29316263,7179087.22401527
BATEU Local,16382,18/05/2012,07:00,Rua Arthur Martins Franco,Rua Alexandre Naldoni,Rua Arthur Martins Franco X Rua Alexandre Naldoni,622,Nublado,ABALROAMENTO TRANSVERSAL,BICICLETA,COM VÍTIMAS,Ferimento,CONDUTOR,05 - Entre 41 e 50 anos,Não Embriagado,Não realizou teste etilométrico,1,1,1,Rua Arthur Martins Franco 622,-25.506642,-49.3345546,667378.842362819,7177902.85464238
BATEU Local,16192,25/05/2012,12:00,Rua Plinio Algacyr Montanari,Rua Capitao Leonidas Marques,Rua Plinio Algacyr Montanari X Rua Capitao Leonidas Marques,1447,Nublado,ABALROAMENTO TRANSVERSAL,BICICLETA,COM VÍTIMAS,Ferimento,CONDUTOR,02 - Entre 12 e 17 anos,Não Embriagado,Não realizou teste etilométrico,1,1,1,Rua Plinio Algacyr Montanari 1447,-25.47748,-49.21737,679201.603587005,7180980.45051656
BATEU Local,11637,29/02/2012,08:00,Rua Fernando De Souza Costa,Avenida Alcir Martins Bastos,Rua Fernando De Souza Costa X Avenida Alcir Martins Bastos,0,Bom,ABALROAMENTO TRANSVERSAL,BICICLETA,COM VÍTIMAS,Não informado,RESPONSAVEL,04 - Entre 30 e 40 anos,Sem Info.,Sem Info.,1,1,0,Rua Fernando De Souza Costa X Avenida Alcir Martins Bastos,-25.48581,-49.32507,668361.269539972,7180198.36136378
BATEU Local,11636,27/02/2012,05:00,Rua Joao Bettega,Rua Desembargador Cid Campelo,Rua Joao Bettega X Rua Desembargador Cid Campelo,0,Nublado,ABALROAMENTO TRANSVERSAL,BICICLETA,COM VÍTIMAS,Ferimento,CONDUTOR,08 - Não informada,Sem Info.,Sem Info.,1,1,1,Rua Joao Bettega X Rua Desembargador Cid Campelo,-25.51177,-49.33261,667567.190727991,7177332.39819492
BATEU Local,11456,02/02/2012,19:00,Rua Luiz Tramontin,Rua Irma Sofia Riechi,Rua Luiz Tramontin X Rua Irma Sofia Riechi,0,Nublado,ABALROAMENTO LATERAL,BICICLETA,COM VÍTIMAS,Ferimento,CONDUTOR,04 - Entre 30 e 40 anos,Não Embriagado,Não realizou teste etilométrico,1,1,1,Rua Luiz Tramontin X Rua Irma Sofia Riechi,-25.46015,-49.34098,666797.142277612,7183060.62449579
BATEU Local,11235,10/04/2012,18:00,Rua Expedicionario Francisco A  De Oliveira,-,Rua Expedicionario Francisco A  De Oliveira X ,887,Bom,ABALROAMENTO TRANSVERSAL,BICICLETA,COM VÍTIMAS,Não informado,NAOIDENTIFICADO,03 - Entre 18 e 29 anos,Sem Info.,Sem Info.,1,1,0,Rua Expedicionario Francisco A  De Oliveira 887,-25.5395724,-49.2470342,676128.319921267,7174142.13318365
BATEU Local,10830,08/01/2012,14:00,Rua Coronel Victor Agner Kendrick,Rua Carlos Augusto Aldenucci,Rua Coronel Victor Agner Kendrick X Rua Carlos Augusto Aldenucci,911,Bom,ABALROAMENTO TRANSVERSAL,BICICLETA,COM VÍTIMAS,Sem Ferimentos,RESPONSAVEL,08 - Não informada,Sem Info.,Sem Info.,1,1,0,Rua Coronel Victor Agner Kendrick 911,-25.53212,-49.25733,675104.479093291,7174981.24035984
BATEU Local,10790,20/01/2012,18:00,Rua Emanoel Voluz,-,Rua Emanoel Voluz X ,450,Bom,COLISAO FRONTAL,BICICLETA,COM VÍTIMAS,-,-,-,Sem Info.,Sem Info.,1,0,0,Rua Emanoel Voluz 450,-25.5250595,-49.2922704,671603.031757847,7175808.90182948
BATEU Local,10546,02/04/2012,07:00,Rua Waldemar Kost,Avenida Marechal Floriano Peixoto,Rua Waldemar Kost X Avenida Marechal Floriano Peixoto,745,Bom,ABALROAMENTO TRANSVERSAL,BICICLETA,COM VÍTIMAS,Sem Ferimentos,RESPONSAVEL,06 - Entre 51 e 59 anos,Sem Info.,Sem Info.,1,1,0,Rua Waldemar Kost 745,-25.48264,-49.24613,676302.35392523,7180447.2851814
BATEU Local,10435,09/04/2012,08:00,Rua Senador Batista De Oliveira,Avenida Coronel Francisco H. Dos Santos,Rua Senador Batista De Oliveira X Avenida Coronel Francisco H. Dos Santos,797,Bom,ABALROAMENTO TRANSVERSAL,BICICLETA,COM VÍTIMAS,Sem Ferimentos,RESPONSAVEL,04 - Entre 30 e 40 anos,Sem Info.,Sem Info.,1,1,0,Rua Senador Batista De Oliveira 797,-25.4569649,-49.2257001,678394.306560431,7183264.08028781
BATEU Local,10322,04/10/2012,20:00,Rua Maria Mazuroski,Rua Jose Batista Dos Santos,Rua Maria Mazuroski X Rua Jose Batista Dos Santos,2175,Bom,ABALROAMENTO TRANSVERSAL,BICICLETA,COM VÍTIMAS,Ferimento,CONDUTOR,08 - Não informada,Sem Info.,Sem Info.,1,1,1,Rua Maria Mazuroski 2175,-25.4828,-49.34373,666489.411126592,7180555.23737791
BATEU Local,10275,15/09/2012,20:00,Rua Osires Paixao Goncalves,Rua Joao Reffo,Rua Osires Paixao Goncalves X Rua Joao Reffo,1595,Bom,ABALROAMENTO TRANSVERSAL,BICICLETA,COM VÍTIMAS,Ferimento,CONDUTOR,04 - Entre 30 e 40 anos,Não Embriagado,Não realizou teste etilométrico,1,1,1,Rua Osires Paixao Goncalves 1595,-25.37827,-49.33152,667861.813367693,7192118.16154966
BATEU Local,10274,04/07/2012,07:00,Rua Laertes Luiz Foggiato,Rua Doutor Lauro Gentio Portugal Tavares,Rua Laertes Luiz Foggiato X Rua Doutor Lauro Gentio Portugal Tavares,0,Bom,ABALROAMENTO TRANSVERSAL,BICICLETA,SEM VÍTIMAS,-,-,-,Sem Info.,Sem Info.,1,0,0,Rua Laertes Luiz Foggiato X Rua Doutor Lauro Gentio Portugal Tavares,-25.53434,-49.2558,675255.016713311,7174733.31575873
BATEU Local,10172,22/06/2012,11:00,Rua Jose Botega,Rua Gerd Claassen,Rua Jose Botega X Rua Gerd Claassen,0,Nublado,ABALROAMENTO TRANSVERSAL,BICICLETA,COM VÍTIMAS,Ferimento,CONDUTOR,08 - Não informada,Não Embriagado,Não realizou teste etilométrico,1,1,1,Rua Jose Botega X Rua Gerd Claassen,-25.39206,-49.34171,666817.481347246,7190603.48964954
BATEU Local,10078,13/06/2012,10:00,Rua Sao Luiz,Rua Dos Funcionarios,Rua Sao Luiz X Rua Dos Funcionarios,573,Nublado,ABALROAMENTO TRANSVERSAL,BICICLETA,COM VÍTIMAS,Ferimento,CONDUTOR,08 - Não informada,Sem Info.,Sem Info.,1,1,1,Rua Sao Luiz 573,-25.4033112,-49.2523828,675788.868044857,7189242.64054435
BATEU Local,10035,09/08/2012,13:00,Rua Antonio Escorsin,Rua Angelo Dallarmi,Rua Antonio Escorsin X Rua Angelo Dallarmi,477,Bom,ABALROAMENTO TRANSVERSAL,BICICLETA,COM VÍTIMAS,Ferimento,CONDUTOR,02 - Entre 12 e 17 anos,Não Embriagado,Não realizou teste etilométrico,1,1,1,Rua Antonio Escorsin 477,-25.41407,-49.33509,667453.147999687,7188157.28060739
BATEU Local,9997,09/07/2012,17:00,Rua Professor Ulisses Vieira,Rua Pretextato Taborda Junior,Rua Professor Ulisses Vieira X Rua Pretextato Taborda Junior,749,Nublado,COLISAO TRASEIRA,BICICLETA,COM VÍTIMAS,Ferimento,CONDUTOR,06 - Entre 51 e 59 anos,Não Embriagado,Não realizou teste etilométrico,1,1,1,Rua Professor Ulisses Vieira 749,-25.46076,-49.29769,671149.439341237,7182938.14837373
BATEU Local,9970,09/09/2012,12:00,Rua General Mario Tourinho,Rua Doutor Romualdo A Barauna,Rua General Mario Tourinho X Rua Doutor Romualdo A Barauna,325,Bom,ABALROAMENTO TRANSVERSAL,BICICLETA,COM VÍTIMAS,Ferimento,CONDUTOR,03 - Entre 18 e 29 anos,Sem Info.,Sem Info.,1,1,1,Rua General Mario Tourinho 325,-25.4486059,-49.3047022,670461.430774926,7184293.40197918
BATEU Local,9950,14/08/2012,17:00,Rua Odair Pazello,Rua Francisco Biscardi,Rua Odair Pazello X Rua Francisco Biscardi,0,Bom,ABALROAMENTO TRANSVERSAL,BICICLETA,COM VÍTIMAS,Ferimento,CONDUTOR,03 - Entre 18 e 29 anos,Não Embriagado,Não realizou teste etilométrico,1,1,1,Rua Odair Pazello X Rua Francisco Biscardi,-25.50337,-49.30375,670479.923265576,7178226.15597388
BATEU Local,9945,19/07/2012,11:00,Rua Joao Batista Zagonel Passos,Rua David Tows,Rua Joao Batista Zagonel Passos X Rua David Tows,996,Bom,ABALROAMENTO TRANSVERSAL,BICICLETA,COM VÍTIMAS,Sem Ferimentos,RESPONSAVEL,04 - Entre 30 e 40 anos,Sem Info.,Sem Info.,1,1,0,Rua Joao Batista Zagonel Passos 996,-25.52242,-49.26482,674365.760593571,7176065.54611151
BATEU Local,9846,26/07/2012,16:00,Rua Waldemar Kost,Rua Carlos Essenfelder,Rua Waldemar Kost X Rua Carlos Essenfelder,0,Bom,ACIDENTE COMPLEXO,BICICLETA,COM VÍTIMAS,Sem Ferimentos,RESPONSAVEL,03 - Entre 18 e 29 anos,Sem Info.,Sem Info.,1,1,0,Rua Waldemar Kost X Rua Carlos Essenfelder,-25.48005,-49.23975,676947.604539122,7180725.71074301
BATEU Local,9711,24/07/2012,13:00,Rua Simao Brante,Rua Dona Barbara Cid,Rua Simao Brante X Rua Dona Barbara Cid,0,Bom,ACIDENTE COMPLEXO,BICICLETA,COM VÍTIMAS,Ferimento,CONDUTOR,07 - 60 ou mais,Sem Info.,Sem Info.,1,1,1,Rua Simao Brante X Rua Dona Barbara Cid,-25.49242,-49.22339,678574.224139592,7179333.64233898
BATEU Local,9567,23/07/2012,07:00,Rua Professor Pedro Viriato Parigot De Souza,Rua Eduardo Sprada,Rua Professor Pedro Viriato Parigot De Souza X Rua Eduardo Sprada,5410,Bom,COLISAO FRONTAL,BICICLETA,COM VÍTIMAS,Ferimento,CONDUTOR,03 - Entre 18 e 29 anos,Sem Info.,Sem Info.,1,1,1,Rua Professor Pedro Viriato Parigot De Souza 5410,-25.4499596,-49.35577,665323.827695698,7184207.79251933
BATEU Local,9542,03/08/2012,14:00,Rua Catulo Da Paixao Cearense,Rua Arabia,Rua Catulo Da Paixao Cearense X Rua Arabia,0,Bom,ABALROAMENTO TRANSVERSAL,BICICLETA,COM VÍTIMAS,Ferimento,CONDUTOR,07 - 60 ou mais,Sem Info.,Sem Info.,1,1,1,Rua Catulo Da Paixao Cearense X Rua Arabia,-25.46416,-49.20291,680675.426885914,7182436.36598468
BATEU Local,9451,23/08/2012,11:00,Rua Marechal Cardoso Junior,Rua Ana Berta Roskamp,Rua Marechal Cardoso Junior X Rua Ana Berta Roskamp,1761,Bom,ABALROAMENTO TRANSVERSAL,BICICLETA,COM VÍTIMAS,Sem Ferimentos,RESPONSAVEL,03 - Entre 18 e 29 anos,Sem Info.,Sem Info.,1,1,0,Rua Marechal Cardoso Junior 1761,-25.46664,-49.23036,677911.454371969,7182198.61033817
BATEU Local,9305,11/08/2012,10:00,Rua Dos Pioneiros,Rua David Tows,Rua Dos Pioneiros X Rua David Tows,2111,Bom,COLISAO TRASEIRA,BICICLETA,COM VÍTIMAS,Ferimento,CONDUTOR,04 - Entre 30 e 40 anos,Não Embriagado,Não realizou teste etilométrico,1,1,1,Rua Dos Pioneiros 2111,-25.5317861,-49.2584525,674992.152360777,7175019.70499728
BATEU Local,9260,20/09/2012,12:00,Rua Orlando Luis Lamarca,Rua Francisco Pereira Mesquita,Rua Orlando Luis Lamarca X Rua Francisco Pereira Mesquita,0,Bom,ABALROAMENTO TRANSVERSAL,BICICLETA,COM VÍTIMAS,Ferimento,CONDUTOR,08 - Não informada,Não Embriagado,Não realizou teste etilométrico,1,1,1,Rua Orlando Luis Lamarca X Rua Francisco Pereira Mesquita,-25.50702,-49.32411,668428.196130836,7177847.79874152
